$GPGGA,133548.000,4844.6815,N,00919.3221,E,2,05,1.42,376.4,M,48.0,M,0000,0000*6A
$GPGSA,A,3,15,13,12,25,17,,,,,,,,2.53,1.42,2.09*0E
$GPGSV,3,1,12,24,75,306,21,12,46,237,38,15,44,186,31,17,37,061,12*79
$GPGSV,3,2,12,33,29,211,30,13,17,156,32,18,16,268,14,22,14,301,*76
$GPGSV,3,3,12,25,09,239,25,14,08,320,,28,05,056,,01,02,017,*7E
$GPRMC,133548.000,A,4844.6815,N,00919.3221,E,1.68,23.97,220415,,,D*56
$GPVTG,23.97,T,,M,1.68,N,3.11,K,D*0B
$GPGGA,133549.000,4844.6828,N,00919.3226,E,2,05,1.38,375.8,M,48.0,M,0000,0000*60
$GPGSA,A,3,15,13,12,25,17,,,,,,,,1.65,1.38,0.90*07
$GPRMC,133549.000,A,4844.6828,N,00919.3226,E,1.85,36.28,220415,,,D*5D
$GPVTG,36.28,T,,M,1.85,N,3.42,K,D*0E
$GPGGA,133550.000,4844.6839,N,00919.3232,E,2,05,1.38,375.5,M,48.0,M,0000,0000*60
$GPGSA,A,3,15,13,12,25,17,,,,,,,,1.65,1.38,0.90*07
$GPRMC,133550.000,A,4844.6839,N,00919.3232,E,2.31,19.10,220415,,,D*5A
$GPVTG,19.10,T,,M,2.31,N,4.28,K,D*0F
$GPGGA,133551.000,4844.6847,N,00919.3233,E,2,05,1.38,374.9,M,48.0,M,0000,0000*64
$GPGSA,A,3,15,13,12,25,17,,,,,,,,1.65,1.38,0.90*07
$GPRMC,133551.000,A,4844.6847,N,00919.3233,E,1.94,24.47,220415,,,D*53
$GPVTG,24.47,T,,M,1.94,N,3.59,K,D*0E
$GPGGA,133552.000,4844.6852,N,00919.3232,E,2,05,1.38,374.4,M,48.0,M,0000,0000*6F
$GPGSA,A,3,15,13,12,25,17,,,,,,,,1.65,1.38,0.90*07
$GPRMC,133552.000,A,4844.6852,N,00919.3232,E,0.82,7.53,220415,,,D*67
$GPVTG,7.53,T,,M,0.82,N,1.52,K,D*35
$GPGGA,133553.000,4844.6832,N,00919.3215,E,2,05,1.42,374.5,M,48.0,M,0000,0000*61
$GPGSA,A,3,15,13,12,25,17,,,,,,,,2.53,1.42,2.09*0E
$GPGSV,3,1,12,24,75,306,19,12,47,237,39,15,44,186,30,17,37,061,19*78
$GPGSV,3,2,12,33,29,211,31,13,17,156,33,18,16,268,15,22,14,301,*77
$GPGSV,3,3,12,25,09,239,24,14,08,320,,28,05,056,,01,02,017,*7F
$GPRMC,133553.000,A,4844.6832,N,00919.3215,E,0.25,275.81,220415,,,D*60
$GPVTG,275.81,T,,M,0.25,N,0.47,K,D*35
$GPGGA,133554.000,4844.6807,N,00919.3193,E,2,05,1.38,374.5,M,48.0,M,0000,0000*60
$GPGSA,A,3,15,13,12,25,17,,,,,,,,1.65,1.38,0.90*07
$GPRMC,133554.000,A,4844.6807,N,00919.3193,E,0.59,245.14,220415,,,D*68
$GPVTG,245.14,T,,M,0.59,N,1.09,K,D*3A
$GPGGA,133555.000,4844.6793,N,00919.3180,E,2,05,1.38,374.6,M,48.0,M,0000,0000*62
$GPGSA,A,3,15,13,12,25,17,,,,,,,,1.65,1.38,0.90*07
$GPRMC,133555.000,A,4844.6793,N,00919.3180,E,0.12,294.54,220415,,,D*6E
$GPVTG,294.54,T,,M,0.12,N,0.22,K,D*35
$GPGGA,133556.000,4844.6776,N,00919.3167,E,2,05,1.38,374.7,M,48.0,M,0000,0000*62
$GPGSA,A,3,15,13,12,25,17,,,,,,,,1.65,1.38,0.90*07
$GPRMC,133556.000,A,4844.6776,N,00919.3167,E,0.61,180.70,220415,,,D*6B
$GPVTG,180.70,T,,M,0.61,N,1.13,K,D*32
$GPGGA,133557.000,4844.6764,N,00919.3156,E,2,05,1.38,374.8,M,48.0,M,0000,0000*6D
$GPGSA,A,3,15,13,12,25,17,,,,,,,,1.65,1.38,0.90*07
$GPRMC,133557.000,A,4844.6764,N,00919.3156,E,0.35,317.08,220415,,,D*69
$GPVTG,317.08,T,,M,0.35,N,0.64,K,D*31
$GPGGA,133558.000,4844.6753,N,00919.3147,E,2,05,1.38,374.8,M,48.0,M,0000,0000*66
$GPGSA,A,3,15,13,12,25,17,,,,,,,,1.65,1.38,0.90*07
$GPGSV,3,1,12,24,75,306,18,12,47,237,39,15,43,186,29,17,37,061,19*76
$GPGSV,3,2,12,33,29,211,31,13,16,156,33,18,16,268,15,22,14,301,*76
$GPGSV,3,3,12,25,09,239,27,14,08,320,,28,05,056,,01,02,017,*7C
$GPRMC,133558.000,A,4844.6753,N,00919.3147,E,0.42,4.15,220415,,,D*6F
$GPVTG,4.15,T,,M,0.42,N,0.77,K,D*3E
$GPGGA,133559.000,4844.6753,N,00919.3146,E,2,05,1.42,374.7,M,48.0,M,0000,0000*64
$GPGSA,A,3,15,13,12,25,17,,,,,,,,2.53,1.42,2.09*0E
$GPRMC,133559.000,A,4844.6753,N,00919.3146,E,0.56,357.26,220415,,,D*6F
$GPVTG,357.26,T,,M,0.56,N,1.04,K,D*3B
$GPGGA,133600.000,4844.6753,N,00919.3145,E,2,05,1.41,374.6,M,48.0,M,0000,0000*6A
$GPGSA,A,3,15,13,12,25,17,,,,,,,,2.53,1.41,2.09*0D
$GPRMC,133600.000,A,4844.6753,N,00919.3145,E,0.42,13.82,220415,,,D*5B
$GPVTG,13.82,T,,M,0.42,N,0.78,K,D*09
$GPGGA,133601.000,4844.6754,N,00919.3146,E,2,05,1.41,374.6,M,48.0,M,0000,0000*6F
$GPGSA,A,3,15,13,12,25,17,,,,,,,,2.53,1.41,2.09*0D
$GPRMC,133601.000,A,4844.6754,N,00919.3146,E,0.31,271.48,220415,,,D*6A
$GPVTG,271.48,T,,M,0.31,N,0.58,K,D*3F
$GPGGA,133602.000,4844.6754,N,00919.3144,E,2,05,1.38,374.5,M,48.0,M,0000,0000*63
$GPGSA,A,3,15,13,12,25,17,,,,,,,,1.65,1.38,0.90*07
$GPRMC,133602.000,A,4844.6754,N,00919.3144,E,0.31,263.96,220415,,,D*6B
$GPVTG,263.96,T,,M,0.31,N,0.58,K,D*3F
$GPGGA,133603.000,4844.6754,N,00919.3143,E,2,05,1.38,374.5,M,48.0,M,0000,0000*65
$GPGSA,A,3,15,13,12,25,17,,,,,,,,1.65,1.38,0.90*07
$GPGSV,3,1,12,24,75,306,18,12,47,237,39,15,43,186,25,17,37,061,20*70
$GPGSV,3,2,12,33,29,211,31,13,16,156,31,18,15,268,16,22,14,301,*74
$GPGSV,3,3,12,25,09,239,29,14,08,320,,28,05,056,,01,02,017,*72
$GPRMC,133603.000,A,4844.6754,N,00919.3143,E,0.42,220.65,220415,,,D*62
$GPVTG,220.65,T,,M,0.42,N,0.79,K,D*33
$GPGGA,133604.000,4844.6753,N,00919.3142,E,2,05,1.38,374.5,M,48.0,M,0000,0000*64
$GPGSA,A,3,15,13,12,25,17,,,,,,,,1.65,1.38,0.90*07
$GPRMC,133604.000,A,4844.6753,N,00919.3142,E,0.42,224.21,220415,,,D*67
$GPVTG,224.21,T,,M,0.42,N,0.79,K,D*37
$GPGGA,133605.000,4844.6752,N,00919.3141,E,2,05,1.38,374.5,M,48.0,M,0000,0000*67
$GPGSA,A,3,15,13,12,25,17,,,,,,,,1.65,1.38,0.90*07
$GPRMC,133605.000,A,4844.6752,N,00919.3141,E,0.40,281.66,220415,,,D*6A
$GPVTG,281.66,T,,M,0.40,N,0.73,K,D*33
$GPGGA,133606.000,4844.6752,N,00919.3139,E,2,05,1.38,374.5,M,48.0,M,0000,0000*6B
$GPGSA,A,3,15,13,12,25,17,,,,,,,,1.65,1.38,0.90*07
$GPRMC,133606.000,A,4844.6752,N,00919.3139,E,0.31,276.10,220415,,,D*69
$GPVTG,276.10,T,,M,0.31,N,0.58,K,D*35
$GPGGA,133607.000,4844.6752,N,00919.3138,E,2,05,1.38,374.5,M,48.0,M,0000,0000*6B
$GPGSA,A,3,15,13,12,25,17,,,,,,,,1.65,1.38,0.90*07
$GPRMC,133607.000,A,4844.6752,N,00919.3138,E,0.51,211.28,220415,,,D*65
$GPVTG,211.28,T,,M,0.51,N,0.94,K,D*39
$GPGGA,133608.000,4844.6751,N,00919.3137,E,2,05,1.38,374.6,M,48.0,M,0000,0000*6B
$GPGSA,A,3,15,13,12,25,17,,,,,,,,1.65,1.38,0.90*07
$GPGSV,3,1,12,24,75,306,18,12,47,237,39,15,43,186,25,17,37,061,21*71
$GPGSV,3,2,12,33,29,211,31,13,16,156,29,18,15,268,13,22,14,301,*78
$GPGSV,3,3,12,25,09,239,29,14,08,320,,28,05,056,,01,02,017,*72
$GPRMC,133608.000,A,4844.6751,N,00919.3137,E,0.44,206.77,220415,,,D*6E
$GPVTG,206.77,T,,M,0.44,N,0.82,K,D*36
$GPGGA,133609.000,4844.6750,N,00919.3136,E,2,05,1.38,374.6,M,48.0,M,0000,0000*6A
$GPGSA,A,3,15,13,12,25,17,,,,,,,,1.65,1.38,0.90*07
$GPRMC,133609.000,A,4844.6750,N,00919.3136,E,0.14,269.09,220415,,,D*6A
$GPVTG,269.09,T,,M,0.14,N,0.27,K,D*3C
$GPGGA,133610.000,4844.6750,N,00919.3136,E,2,05,1.38,374.6,M,48.0,M,0000,0000*62
$GPGSA,A,3,15,13,12,25,17,,,,,,,,1.65,1.38,0.90*07
$GPRMC,133610.000,A,4844.6750,N,00919.3136,E,0.10,161.65,220415,,,D*67
$GPVTG,161.65,T,,M,0.10,N,0.18,K,D*35
$GPGGA,133611.000,4844.6750,N,00919.3136,E,2,05,1.38,374.7,M,48.0,M,0000,0000*62
$GPGSA,A,3,15,13,12,25,17,,,,,,,,1.65,1.38,0.90*07
$GPRMC,133611.000,A,4844.6750,N,00919.3136,E,0.31,209.11,220415,,,D*6B
$GPVTG,209.11,T,,M,0.31,N,0.58,K,D*3C
$GPGGA,133612.000,4844.6749,N,00919.3136,E,2,05,1.38,374.7,M,48.0,M,0000,0000*69
$GPGSA,A,3,15,13,12,25,17,,,,,,,,1.65,1.38,0.90*07
$GPRMC,133612.000,A,4844.6749,N,00919.3136,E,0.13,29.16,220415,,,D*57
$GPVTG,29.16,T,,M,0.13,N,0.24,K,D*00
$GPGGA,133613.000,4844.6749,N,00919.3136,E,2,05,1.38,374.7,M,48.0,M,0000,0000*68
$GPGSA,A,3,15,13,12,25,17,,,,,,,,1.65,1.38,0.90*07
$GPGSV,3,1,12,24,75,306,23,12,47,237,39,15,43,186,18,17,37,061,20*76
$GPGSV,3,2,12,33,29,211,31,13,16,156,29,18,15,268,13,22,14,301,*78
$GPGSV,3,3,12,25,09,239,30,14,08,320,,28,05,056,,01,02,017,*7A
$GPRMC,133613.000,A,4844.6749,N,00919.3136,E,0.28,266.17,220415,,,D*66
$GPVTG,266.17,T,,M,0.28,N,0.53,K,D*30
$GPGGA,133614.000,4844.6749,N,00919.3135,E,2,05,1.38,374.8,M,48.0,M,0000,0000*63
$GPGSA,A,3,15,13,12,25,17,,,,,,,,1.65,1.38,0.90*07
$GPRMC,133614.000,A,4844.6749,N,00919.3135,E,0.09,304.76,220415,,,D*63
$GPVTG,304.76,T,,M,0.09,N,0.17,K,D*31
$GPGGA,133615.000,4844.6749,N,00919.3135,E,2,05,1.38,374.8,M,48.0,M,0000,0000*62
$GPGSA,A,3,15,13,12,25,17,,,,,,,,1.65,1.38,0.90*07
$GPRMC,133615.000,A,4844.6749,N,00919.3135,E,0.28,66.85,220415,,,D*5A
$GPVTG,66.85,T,,M,0.28,N,0.52,K,D*08
$GPGGA,133616.000,4844.6750,N,00919.3136,E,2,05,1.38,374.8,M,48.0,M,0000,0000*6A
$GPGSA,A,3,15,13,12,25,17,,,,,,,,1.65,1.38,0.90*07
$GPRMC,133616.000,A,4844.6750,N,00919.3136,E,0.50,13.58,220415,,,D*5F
$GPVTG,13.58,T,,M,0.50,N,0.92,K,D*09
$GPGGA,133617.000,4844.6751,N,00919.3136,E,2,05,1.41,374.9,M,48.0,M,0000,0000*65
$GPGSA,A,3,15,13,12,25,17,,,,,,,,2.53,1.41,2.10*05
$GPRMC,133617.000,A,4844.6751,N,00919.3136,E,0.39,19.38,220415,,,D*5C
$GPVTG,19.38,T,,M,0.39,N,0.73,K,D*05
$GPGGA,133618.000,4844.6752,N,00919.3137,E,2,05,1.38,374.9,M,48.0,M,0000,0000*66
$GPGSA,A,3,15,13,12,25,17,,,,,,,,1.65,1.38,0.90*07
$GPGSV,3,1,12,24,75,306,23,12,47,237,39,15,43,186,21,17,37,061,19*76
$GPGSV,3,2,12,33,29,211,31,13,16,156,31,18,15,268,14,22,14,301,*76
$GPGSV,3,3,12,25,09,239,29,14,08,320,,28,05,056,,01,02,016,*73
$GPRMC,133618.000,A,4844.6752,N,00919.3137,E,0.67,347.01,220415,,,D*68
$GPVTG,347.01,T,,M,0.67,N,1.24,K,D*3F
$GPGGA,133619.000,4844.6752,N,00919.3141,E,2,05,1.41,375.1,M,48.0,M,0000,0000*61
$GPGSA,A,3,15,13,12,25,17,,,,,,,,2.53,1.41,2.10*05
$GPRMC,133619.000,A,4844.6752,N,00919.3141,E,0.45,36.62,220415,,,D*58
$GPVTG,36.62,T,,M,0.45,N,0.83,K,D*03
$GPGGA,133620.000,4844.6753,N,00919.3149,E,2,05,1.38,375.4,M,48.0,M,0000,0000*69
$GPGSA,A,3,15,13,12,25,17,,,,,,,,1.65,1.38,0.90*07
$GPRMC,133620.000,A,4844.6753,N,00919.3149,E,0.78,49.84,220415,,,D*55
$GPVTG,49.84,T,,M,0.78,N,1.45,K,D*06
$GPGGA,133621.000,4844.6746,N,00919.3147,E,2,05,1.38,375.6,M,48.0,M,0000,0000*60
$GPGSA,A,3,15,13,12,25,17,,,,,,,,1.65,1.38,0.90*07
$GPRMC,133621.000,A,4844.6746,N,00919.3147,E,0.88,8.60,220415,,,D*6E
$GPVTG,8.60,T,,M,0.88,N,1.63,K,D*32
$GPGGA,133622.000,4844.6746,N,00919.3151,E,2,05,1.41,375.8,M,48.0,M,0000,0000*64
$GPGSA,A,3,15,13,12,25,17,,,,,,,,2.53,1.41,2.10*05
$GPRMC,133622.000,A,4844.6746,N,00919.3151,E,0.74,21.94,220415,,,D*59
$GPVTG,21.94,T,,M,0.74,N,1.37,K,D*00
$GPGGA,133623.000,4844.6741,N,00919.3153,E,2,05,1.38,376.0,M,48.0,M,0000,0000*65
$GPGSA,A,3,15,13,12,25,17,,,,,,,,1.65,1.38,0.90*07
$GPGSV,3,1,12,24,75,306,22,12,47,237,39,15,43,186,22,17,37,061,16*7B
$GPGSV,3,2,12,33,29,211,31,13,16,156,31,18,15,268,17,22,14,301,*75
$GPGSV,3,3,12,25,09,239,28,14,08,320,,28,05,056,,01,02,016,*72
$GPRMC,133623.000,A,4844.6741,N,00919.3153,E,0.47,41.94,220415,,,D*5B
$GPVTG,41.94,T,,M,0.47,N,0.88,K,D*03
$GPGGA,133624.000,4844.6741,N,00919.3156,E,2,05,1.38,376.2,M,48.0,M,0000,0000*65
$GPGSA,A,3,15,13,12,25,17,,,,,,,,1.65,1.38,0.90*07
$GPRMC,133624.000,A,4844.6741,N,00919.3156,E,0.56,45.87,220415,,,D*5F
$GPVTG,45.87,T,,M,0.56,N,1.03,K,D*07
$GPGGA,133625.000,4844.6745,N,00919.3162,E,2,05,1.38,376.4,M,48.0,M,0000,0000*61
$GPGSA,A,3,15,13,12,25,17,,,,,,,,1.65,1.38,0.90*07
$GPRMC,133625.000,A,4844.6745,N,00919.3162,E,0.40,7.91,220415,,,D*6B
$GPVTG,7.91,T,,M,0.40,N,0.73,K,D*37
$GPGGA,133626.000,4844.6744,N,00919.3162,E,2,05,1.41,376.6,M,48.0,M,0000,0000*6F
$GPGSA,A,3,15,13,12,25,17,,,,,,,,2.53,1.41,2.10*05
$GPRMC,133626.000,A,4844.6744,N,00919.3162,E,0.05,269.25,220415,,,D*6D
$GPVTG,269.25,T,,M,0.05,N,0.10,K,D*36
$GPGGA,133627.000,4844.6744,N,00919.3162,E,2,05,1.38,376.6,M,48.0,M,0000,0000*60
$GPGSA,A,3,15,13,12,25,17,,,,,,,,1.65,1.38,0.90*07
$GPRMC,133627.000,A,4844.6744,N,00919.3162,E,0.14,205.14,220415,,,D*64
$GPVTG,205.14,T,,M,0.14,N,0.25,K,D*38
$GPGGA,133628.000,4844.6744,N,00919.3162,E,2,05,1.38,376.7,M,48.0,M,0000,0000*6E
$GPGSA,A,3,15,13,12,25,17,,,,,,,,1.65,1.38,0.90*07
$GPGSV,3,1,12,24,75,306,21,12,47,237,39,15,43,186,27,17,37,061,12*79
$GPGSV,3,2,12,33,29,211,32,13,16,156,31,18,15,268,17,22,14,301,*76
$GPGSV,3,3,12,25,09,239,29,14,08,320,,28,05,056,,01,02,016,*73
$GPRMC,133628.000,A,4844.6744,N,00919.3162,E,0.06,272.75,220415,,,D*6F
$GPVTG,272.75,T,,M,0.06,N,0.11,K,D*3B
$GPGGA,133629.000,4844.6744,N,00919.3162,E,2,05,1.38,376.7,M,48.0,M,0000,0000*6F
$GPGSA,A,3,15,13,12,25,17,,,,,,,,1.64,1.38,0.90*06
$GPRMC,133629.000,A,4844.6744,N,00919.3162,E,0.10,119.22,220415,,,D*65
$GPVTG,119.22,T,,M,0.10,N,0.18,K,D*39
$GPGGA,133630.000,4844.6744,N,00919.3162,E,2,05,1.37,376.7,M,48.0,M,0000,0000*68
$GPGSA,A,3,15,13,12,25,17,,,,,,,,1.64,1.37,0.90*09
$GPRMC,133630.000,A,4844.6744,N,00919.3162,E,0.21,345.52,220415,,,D*63
$GPVTG,345.52,T,,M,0.21,N,0.39,K,D*34
$GPGGA,133631.000,4844.6744,N,00919.3162,E,2,05,1.41,376.7,M,48.0,M,0000,0000*68
$GPGSA,A,3,15,13,12,25,17,,,,,,,,2.53,1.41,2.10*05
$GPRMC,133631.000,A,4844.6744,N,00919.3162,E,0.20,2.53,220415,,,D*62
$GPVTG,2.53,T,,M,0.20,N,0.37,K,D*3A
$GPGGA,133632.000,4844.6745,N,00919.3162,E,2,05,1.41,376.7,M,48.0,M,0000,0000*6A
$GPGSA,A,3,15,13,12,25,17,,,,,,,,2.53,1.41,2.10*05
$GPRMC,133632.000,A,4844.6745,N,00919.3162,E,0.37,4.54,220415,,,D*67
$GPVTG,4.54,T,,M,0.37,N,0.68,K,D*37
$GPGGA,133633.000,4844.6746,N,00919.3163,E,2,05,1.41,376.7,M,48.0,M,0000,0000*69
$GPGSA,A,3,15,13,12,25,17,,,,,,,,2.53,1.41,2.10*05
$GPGSV,3,1,12,24,75,306,17,12,47,237,39,15,43,186,25,17,37,061,20*7F
$GPGSV,3,2,12,33,29,211,32,13,16,156,31,18,15,268,16,22,14,301,*77
$GPGSV,3,3,12,25,09,239,29,14,08,320,,28,05,056,,01,02,016,*73
$GPRMC,133633.000,A,4844.6746,N,00919.3163,E,1.16,25.68,220415,,,D*5A
$GPVTG,25.68,T,,M,1.16,N,2.15,K,D*01
$GPGGA,133634.000,4844.6747,N,00919.3167,E,2,05,1.37,376.7,M,48.0,M,0000,0000*6A
$GPGSA,A,3,15,13,12,25,17,,,,,,,,1.64,1.37,0.90*09
$GPRMC,133634.000,A,4844.6747,N,00919.3167,E,1.17,29.46,220415,,,D*59
$GPVTG,29.46,T,,M,1.17,N,2.17,K,D*02
$GPGGA,133635.000,4844.6752,N,00919.3171,E,2,05,1.37,376.6,M,48.0,M,0000,0000*69
$GPGSA,A,3,15,13,12,25,17,,,,,,,,1.64,1.37,0.90*09
$GPRMC,133635.000,A,4844.6752,N,00919.3171,E,1.55,4.95,220415,,,D*6C
$GPVTG,4.95,T,,M,1.55,N,2.88,K,D*33
$GPGGA,133636.000,4844.6754,N,00919.3175,E,2,05,1.41,376.6,M,48.0,M,0000,0000*69
$GPGSA,A,3,15,13,12,25,17,,,,,,,,2.53,1.41,2.10*05
$GPRMC,133636.000,A,4844.6754,N,00919.3175,E,1.04,27.34,220415,,,D*53
$GPVTG,27.34,T,,M,1.04,N,1.92,K,D*05
$GPGGA,133637.000,4844.6760,N,00919.3182,E,2,05,1.37,376.4,M,48.0,M,0000,0000*64
$GPGSA,A,3,15,13,12,25,17,,,,,,,,1.64,1.37,0.90*09
$GPRMC,133637.000,A,4844.6760,N,00919.3182,E,0.79,37.59,220415,,,D*5C
$GPVTG,37.59,T,,M,0.79,N,1.46,K,D*0D
$GPGGA,133638.000,4844.6766,N,00919.3187,E,2,05,1.37,376.2,M,48.0,M,0000,0000*6E
$GPGSA,A,3,15,13,12,25,17,,,,,,,,1.64,1.37,0.90*09
$GPGSV,3,1,12,24,75,306,16,12,47,237,39,15,43,186,27,17,37,061,18*77
$GPGSV,3,2,12,33,29,211,32,13,16,156,28,18,15,268,17,22,14,300,*7F
$GPGSV,3,3,12,25,09,239,27,14,08,320,,28,05,056,,01,02,016,*7D
$GPRMC,133638.000,A,4844.6766,N,00919.3187,E,0.82,17.92,220415,,,D*51
$GPVTG,17.92,T,,M,0.82,N,1.52,K,D*09
$GPGGA,133639.000,4844.6769,N,00919.3190,E,2,05,1.37,376.0,M,48.0,M,0000,0000*64
$GPGSA,A,3,15,13,12,25,17,,,,,,,,1.64,1.37,0.90*09
$GPRMC,133639.000,A,4844.6769,N,00919.3190,E,0.51,1.23,220415,,,D*6A
$GPVTG,1.23,T,,M,0.51,N,0.95,K,D*30
$GPGGA,133640.000,4844.6767,N,00919.3191,E,2,05,1.41,375.8,M,48.0,M,0000,0000*6F
$GPGSA,A,3,15,13,12,25,17,,,,,,,,2.53,1.41,2.10*05
$GPRMC,133640.000,A,4844.6767,N,00919.3191,E,0.11,286.22,220415,,,D*63
$GPVTG,286.22,T,,M,0.11,N,0.21,K,D*37
$GPGGA,133641.000,4844.6766,N,00919.3194,E,2,05,1.37,375.8,M,48.0,M,0000,0000*6B
$GPGSA,A,3,15,13,12,25,17,,,,,,,,1.64,1.37,0.90*09
$GPRMC,133641.000,A,4844.6766,N,00919.3194,E,0.08,351.02,220415,,,D*67
$GPVTG,351.02,T,,M,0.08,N,0.15,K,D*31
$GPGGA,133642.000,4844.6767,N,00919.3198,E,2,05,1.41,375.8,M,48.0,M,0000,0000*64
$GPGSA,A,3,15,13,12,25,17,,,,,,,,2.53,1.41,2.10*05
$GPRMC,133642.000,A,4844.6767,N,00919.3198,E,0.17,315.70,220415,,,D*62
$GPVTG,315.70,T,,M,0.17,N,0.31,K,D*3C
$GPGGA,133643.000,4844.6768,N,00919.3197,E,2,05,1.37,375.7,M,48.0,M,0000,0000*6B
$GPGSA,A,3,15,13,12,25,17,,,,,,,,1.64,1.37,0.90*09
$GPGSV,3,1,12,24,75,306,16,12,47,237,39,15,43,186,25,17,37,061,20*7E
$GPGSV,3,2,12,33,29,211,31,13,16,156,30,18,15,268,19,22,14,300,*7B
$GPGSV,3,3,12,25,10,240,26,14,08,320,,28,05,056,,01,02,016,*7A
$GPRMC,133643.000,A,4844.6768,N,00919.3197,E,0.15,238.57,220415,,,D*6A
$GPVTG,238.57,T,,M,0.15,N,0.28,K,D*3D
$GPGGA,133644.000,4844.6768,N,00919.3197,E,2,05,1.37,375.7,M,48.0,M,0000,0000*6C
$GPGSA,A,3,15,13,12,25,17,,,,,,,,1.64,1.37,0.90*09
$GPRMC,133644.000,A,4844.6768,N,00919.3197,E,0.27,314.42,220415,,,D*67
$GPVTG,314.42,T,,M,0.27,N,0.50,K,D*38
$GPGGA,133645.000,4844.6768,N,00919.3196,E,2,05,1.37,375.7,M,48.0,M,0000,0000*6C
$GPGSA,A,3,15,13,12,25,17,,,,,,,,1.64,1.37,0.90*09
$GPRMC,133645.000,A,4844.6768,N,00919.3196,E,0.46,350.27,220415,,,D*63
$GPVTG,350.27,T,,M,0.46,N,0.84,K,D*35
$GPGGA,133646.000,4844.6769,N,00919.3196,E,2,05,1.41,375.7,M,48.0,M,0000,0000*6F
$GPGSA,A,3,15,13,12,25,17,,,,,,,,2.53,1.41,2.10*05
$GPRMC,133646.000,A,4844.6769,N,00919.3196,E,0.28,3.61,220415,,,D*6E
$GPVTG,3.61,T,,M,0.28,N,0.52,K,D*31
$GPGGA,133647.000,4844.6770,N,00919.3196,E,2,05,1.41,375.7,M,48.0,M,0000,0000*66
$GPGSA,A,3,15,13,12,25,17,,,,,,,,2.53,1.41,2.10*05
$GPRMC,133647.000,A,4844.6770,N,00919.3196,E,0.45,39.38,220415,,,D*59
$GPVTG,39.38,T,,M,0.45,N,0.83,K,D*03
$GPGGA,133648.000,4844.6771,N,00919.3197,E,2,05,1.37,375.7,M,48.0,M,0000,0000*68
$GPGSA,A,3,15,13,12,25,17,,,,,,,,1.64,1.37,0.90*09
$GPGSV,3,1,12,24,75,306,18,12,47,237,39,15,43,186,22,17,37,061,21*76
$GPGSV,3,2,12,33,29,211,31,13,16,156,32,18,15,268,19,22,14,300,*79
$GPGSV,3,3,12,25,10,240,22,14,08,320,,28,05,056,,01,02,016,*7E
$GPRMC,133648.000,A,4844.6771,N,00919.3197,E,0.40,19.05,220415,,,D*5F
$GPVTG,19.05,T,,M,0.40,N,0.75,K,D*03
$GPGGA,133649.000,4844.6772,N,00919.3198,E,2,05,1.37,375.8,M,48.0,M,0000,0000*6A
$GPGSA,A,3,15,13,12,25,17,,,,,,,,1.64,1.37,0.90*09
$GPRMC,133649.000,A,4844.6772,N,00919.3198,E,0.66,38.38,220415,,,D*5B
$GPVTG,38.38,T,,M,0.66,N,1.21,K,D*0A
$GPGGA,133650.000,4844.6776,N,00919.3200,E,2,05,1.37,375.8,M,48.0,M,0000,0000*64
$GPGSA,A,3,15,13,12,25,17,,,,,,,,1.64,1.37,0.90*09
$GPRMC,133650.000,A,4844.6776,N,00919.3200,E,0.56,46.88,220415,,,D*54
$GPVTG,46.88,T,,M,0.56,N,1.04,K,D*0C
$GPGGA,133651.000,4844.6781,N,00919.3200,E,2,05,1.37,375.8,M,48.0,M,0000,0000*6D
$GPGSA,A,3,15,13,12,25,17,,,,,,,,1.64,1.37,0.90*09
$GPRMC,133651.000,A,4844.6781,N,00919.3200,E,0.59,352.21,220415,,,D*67
$GPVTG,352.21,T,,M,0.59,N,1.09,K,D*3B
$GPGGA,133652.000,4844.6786,N,00919.3203,E,2,05,1.41,376.0,M,48.0,M,0000,0000*60
$GPGSA,A,3,15,13,12,25,17,,,,,,,,2.53,1.41,2.10*05
$GPRMC,133652.000,A,4844.6786,N,00919.3203,E,0.51,350.65,220415,,,D*6A
$GPVTG,350.65,T,,M,0.51,N,0.95,K,D*35
$GPGGA,133653.000,4844.6790,N,00919.3204,E,2,05,1.41,376.2,M,48.0,M,0000,0000*63
$GPGSA,A,3,15,13,12,25,17,,,,,,,,2.53,1.41,2.10*05
$GPGSV,3,1,12,24,75,306,21,12,47,237,39,15,43,186,24,17,37,061,21*7A
$GPGSV,3,2,12,33,29,211,31,13,16,156,33,18,15,268,22,22,14,300,*70
$GPGSV,3,3,12,25,10,240,23,14,08,320,,28,05,056,,01,02,016,*7F
$GPRMC,133653.000,A,4844.6790,N,00919.3204,E,0.25,1.50,220415,,,D*69
$GPVTG,1.50,T,,M,0.25,N,0.47,K,D*38
$GPGGA,133654.000,4844.6793,N,00919.3207,E,2,05,1.41,376.6,M,48.0,M,0000,0000*60
$GPGSA,A,3,15,13,12,25,17,,,,,,,,2.53,1.41,2.10*05
$GPRMC,133654.000,A,4844.6793,N,00919.3207,E,0.32,355.72,220415,,,D*6A
$GPVTG,355.72,T,,M,0.32,N,0.59,K,D*33
$GPGGA,133655.000,4844.6796,N,00919.3208,E,2,05,1.41,376.8,M,48.0,M,0000,0000*65
$GPGSA,A,3,15,13,12,25,17,,,,,,,,2.53,1.41,2.10*05
$GPRMC,133655.000,A,4844.6796,N,00919.3208,E,0.31,358.60,220415,,,D*6C
$GPVTG,358.60,T,,M,0.31,N,0.57,K,D*30
$GPGGA,133656.000,4844.6797,N,00919.3208,E,2,05,1.41,376.8,M,48.0,M,0000,0000*67
$GPGSA,A,3,15,13,12,25,17,,,,,,,,2.53,1.41,2.10*05
$GPRMC,133656.000,A,4844.6797,N,00919.3208,E,0.34,99.03,220415,,,D*50
$GPVTG,99.03,T,,M,0.34,N,0.64,K,D*0E
$GPGGA,133657.000,4844.6797,N,00919.3209,E,2,05,1.37,376.9,M,48.0,M,0000,0000*67
$GPGSA,A,3,15,13,12,25,17,,,,,,,,1.64,1.37,0.90*09
$GPRMC,133657.000,A,4844.6797,N,00919.3209,E,0.47,16.01,220415,,,D*51
$GPVTG,16.01,T,,M,0.47,N,0.87,K,D*02
$GPGGA,133658.000,4844.6798,N,00919.3210,E,2,05,1.37,376.9,M,48.0,M,0000,0000*6F
$GPGSA,A,3,15,13,12,25,17,,,,,,,,1.64,1.37,0.90*09
$GPGSV,3,1,12,24,75,306,22,12,47,237,39,15,43,186,26,17,37,061,20*7A
$GPGSV,3,2,12,33,29,211,31,13,16,156,34,18,15,268,21,22,14,300,*74
$GPGSV,3,3,12,25,10,240,23,14,08,320,,28,05,056,,01,02,016,*7F
$GPRMC,133658.000,A,4844.6798,N,00919.3210,E,0.74,15.16,220415,,,D*5C
$GPVTG,15.16,T,,M,0.74,N,1.38,K,D*02
$GPGGA,133659.000,4844.6802,N,00919.3213,E,2,05,1.37,377.1,M,48.0,M,0000,0000*68
$GPGSA,A,3,15,13,12,25,17,,,,,,,,1.64,1.37,0.90*09
$GPRMC,133659.000,A,4844.6802,N,00919.3213,E,0.57,3.29,220415,,,D*68
$GPVTG,3.29,T,,M,0.57,N,1.05,K,D*36
$GPGGA,133700.000,4844.6806,N,00919.3215,E,2,05,1.41,377.2,M,48.0,M,0000,0000*65
$GPGSA,A,3,15,13,12,25,17,,,,,,,,2.53,1.41,2.10*05
$GPRMC,133700.000,A,4844.6806,N,00919.3215,E,0.78,7.09,220415,,,D*6C
$GPVTG,7.09,T,,M,0.78,N,1.45,K,D*39
$GPGGA,133701.000,4844.6808,N,00919.3217,E,2,05,1.41,377.2,M,48.0,M,0000,0000*68
$GPGSA,A,3,15,13,12,25,17,,,,,,,,2.53,1.41,2.10*05
$GPRMC,133701.000,A,4844.6808,N,00919.3217,E,0.45,69.60,220415,,,D*58
$GPVTG,69.60,T,,M,0.45,N,0.83,K,D*0B
$GPGGA,133702.000,4844.6810,N,00919.3219,E,2,05,1.37,377.3,M,48.0,M,0000,0000*6C
$GPGSA,A,3,15,13,12,25,17,,,,,,,,1.64,1.37,0.90*09
$GPRMC,133702.000,A,4844.6810,N,00919.3219,E,0.29,21.99,220415,,,D*5C
$GPVTG,21.99,T,,M,0.29,N,0.53,K,D*06
$GPGGA,133703.000,4844.6812,N,00919.3219,E,2,05,1.37,377.4,M,48.0,M,0000,0000*68
$GPGSA,A,3,15,13,12,25,17,,,,,,,,1.64,1.37,0.90*09
$GPGSV,3,1,12,24,75,306,21,12,47,238,39,15,43,186,27,17,37,061,18*7C
$GPGSV,3,2,12,33,29,211,31,13,16,156,34,18,15,268,18,22,14,300,*7E
$GPGSV,3,3,12,25,10,240,22,14,08,320,,28,05,056,,01,02,016,*7E
$GPRMC,133703.000,A,4844.6812,N,00919.3219,E,0.22,28.32,220415,,,D*5C
$GPVTG,28.32,T,,M,0.22,N,0.41,K,D*06
$GPGGA,133704.000,4844.6814,N,00919.3220,E,2,05,1.37,377.4,M,48.0,M,0000,0000*63
$GPGSA,A,3,15,13,12,25,17,,,,,,,,1.64,1.37,0.90*09
$GPRMC,133704.000,A,4844.6814,N,00919.3220,E,0.38,19.90,220415,,,D*56
$GPVTG,19.90,T,,M,0.38,N,0.70,K,D*05
$GPGGA,133705.000,4844.6815,N,00919.3221,E,2,05,1.37,377.4,M,48.0,M,0000,0000*62
$GPGSA,A,3,15,13,12,25,17,,,,,,,,1.64,1.37,0.90*09
$GPRMC,133705.000,A,4844.6815,N,00919.3221,E,0.78,359.47,220415,,,D*6E
$GPVTG,359.47,T,,M,0.78,N,1.44,K,D*3A
$GPGGA,133706.000,4844.6820,N,00919.3222,E,2,05,1.41,377.4,M,48.0,M,0000,0000*65
$GPGSA,A,3,15,13,12,25,17,,,,,,,,2.53,1.41,2.10*05
$GPRMC,133706.000,A,4844.6820,N,00919.3222,E,0.78,19.03,220415,,,D*5F
$GPVTG,19.03,T,,M,0.78,N,1.45,K,D*0C
$GPGGA,133707.000,4844.6823,N,00919.3222,E,2,05,1.37,377.4,M,48.0,M,0000,0000*66
$GPGSA,A,3,15,13,12,25,17,,,,,,,,1.64,1.37,0.90*09
$GPRMC,133707.000,A,4844.6823,N,00919.3222,E,0.80,336.49,220415,,,D*6A
$GPVTG,336.49,T,,M,0.80,N,1.48,K,D*36
$GPGGA,133708.000,4844.6824,N,00919.3221,E,2,05,1.37,377.5,M,48.0,M,0000,0000*6C
$GPGSA,A,3,15,13,12,25,17,,,,,,,,1.64,1.37,0.90*09
$GPGSV,3,1,12,24,75,306,21,12,47,238,39,15,43,186,27,17,37,061,20*77
$GPGSV,3,2,12,33,29,211,31,13,16,157,30,18,15,268,17,22,14,300,*74
$GPGSV,3,3,12,25,10,240,21,14,09,320,,28,05,056,,01,02,016,*7C
$GPRMC,133708.000,A,4844.6824,N,00919.3221,E,0.44,13.73,220415,,,D*54
$GPVTG,13.73,T,,M,0.44,N,0.82,K,D*04
$GPGGA,133709.000,4844.6825,N,00919.3221,E,2,05,1.41,377.4,M,48.0,M,0000,0000*6C
$GPGSA,A,3,15,13,12,25,17,,,,,,,,2.53,1.41,2.10*05
$GPRMC,133709.000,A,4844.6825,N,00919.3221,E,0.46,31.93,220415,,,D*58
$GPVTG,31.93,T,,M,0.46,N,0.85,K,D*0F
$GPGGA,133710.000,4844.6825,N,00919.3221,E,2,05,1.37,377.5,M,48.0,M,0000,0000*64
$GPGSA,A,3,15,13,12,25,17,,,,,,,,1.64,1.37,0.90*09
$GPRMC,133710.000,A,4844.6825,N,00919.3221,E,0.22,340.93,220415,,,D*67
$GPVTG,340.93,T,,M,0.22,N,0.40,K,D*31
$GPGGA,133711.000,4844.6825,N,00919.3221,E,2,05,1.37,377.5,M,48.0,M,0000,0000*65
$GPGSA,A,3,15,13,12,25,17,,,,,,,,1.64,1.37,0.90*09
$GPRMC,133711.000,A,4844.6825,N,00919.3221,E,0.52,58.85,220415,,,D*5C
$GPVTG,58.85,T,,M,0.52,N,0.97,K,D*01
$GPGGA,133712.000,4844.6825,N,00919.3223,E,2,05,1.37,377.5,M,48.0,M,0000,0000*64
$GPGSA,A,3,15,13,12,25,17,,,,,,,,1.64,1.37,0.90*09
$GPRMC,133712.000,A,4844.6825,N,00919.3223,E,0.62,45.44,220415,,,D*5F
$GPVTG,45.44,T,,M,0.62,N,1.15,K,D*08
$GPGGA,133713.000,4844.6825,N,00919.3227,E,2,05,1.37,377.5,M,48.0,M,0000,0000*61
$GPGSA,A,3,15,13,12,25,17,,,,,,,,1.64,1.37,0.90*09
$GPGSV,3,1,12,24,75,306,23,12,47,238,39,15,43,186,26,17,37,061,18*7F
$GPGSV,3,2,12,33,29,211,30,13,16,157,28,18,15,268,20,22,14,300,*78
$GPGSV,3,3,12,25,10,240,23,14,09,320,,28,05,056,,01,02,016,*7E
$GPRMC,133713.000,A,4844.6825,N,00919.3227,E,0.89,50.54,220415,,,D*5A
$GPVTG,50.54,T,,M,0.89,N,1.64,K,D*0E
$GPGGA,133714.000,4844.6825,N,00919.3230,E,2,05,1.37,377.5,M,48.0,M,0000,0000*60
$GPGSA,A,3,15,13,12,25,17,,,,,,,,1.64,1.37,0.90*09
$GPRMC,133714.000,A,4844.6825,N,00919.3230,E,0.95,7.80,220415,,,D*6D
$GPVTG,7.80,T,,M,0.95,N,1.75,K,D*38
$GPGGA,133715.000,4844.6825,N,00919.3233,E,2,05,1.41,377.5,M,48.0,M,0000,0000*63
$GPGSA,A,3,15,13,12,25,17,,,,,,,,2.53,1.41,2.10*05
$GPRMC,133715.000,A,4844.6825,N,00919.3233,E,0.66,30.02,220415,,,D*5D
$GPVTG,30.02,T,,M,0.66,N,1.22,K,D*08
$GPGGA,133716.000,4844.6826,N,00919.3236,E,2,05,1.37,377.5,M,48.0,M,0000,0000*67
$GPGSA,A,3,15,13,12,25,17,,,,,,,,1.64,1.37,0.90*09
$GPRMC,133716.000,A,4844.6826,N,00919.3236,E,0.74,14.26,220415,,,D*5B
$GPVTG,14.26,T,,M,0.74,N,1.38,K,D*00
$GPGGA,133717.000,4844.6827,N,00919.3238,E,2,05,1.40,377.6,M,48.0,M,0000,0000*6A
$GPGSA,A,3,15,13,12,25,17,,,,,,,,2.53,1.40,2.10*04
$GPRMC,133717.000,A,4844.6827,N,00919.3238,E,0.69,337.56,220415,,,D*6C
$GPVTG,337.56,T,,M,0.69,N,1.28,K,D*38
$GPGGA,133718.000,4844.6827,N,00919.3239,E,2,05,1.37,377.8,M,48.0,M,0000,0000*6A
$GPGSA,A,3,15,13,12,25,17,,,,,,,,1.64,1.37,0.90*09
$GPGSV,3,1,12,24,76,307,23,12,47,238,39,15,43,186,26,17,37,061,19*7C
$GPGSV,3,2,12,33,29,211,30,13,16,157,32,18,15,268,22,22,14,300,*71
$GPGSV,3,3,12,25,10,240,23,14,09,320,,28,05,056,,01,02,016,*7E
$GPRMC,133718.000,A,4844.6827,N,00919.3239,E,0.30,348.95,220415,,,D*69
$GPVTG,348.95,T,,M,0.30,N,0.55,K,D*38
$GPGGA,133719.000,4844.6827,N,00919.3238,E,2,05,1.41,377.9,M,48.0,M,0000,0000*6A
$GPGSA,A,3,15,13,12,25,17,,,,,,,,2.53,1.41,2.10*05
$GPRMC,133719.000,A,4844.6827,N,00919.3238,E,0.18,243.53,220415,,,D*63
$GPVTG,243.53,T,,M,0.18,N,0.33,K,D*32
$GPGGA,133720.000,4844.6825,N,00919.3236,E,2,05,1.37,378.2,M,48.0,M,0000,0000*69
$GPGSA,A,3,15,13,12,25,17,,,,,,,,1.64,1.37,0.90*09
$GPRMC,133720.000,A,4844.6825,N,00919.3236,E,0.77,313.51,220415,,,D*6A
$GPVTG,313.51,T,,M,0.77,N,1.43,K,D*3B
$GPGGA,133721.000,4844.6825,N,00919.3232,E,2,05,1.37,378.4,M,48.0,M,0000,0000*6A
$GPGSA,A,3,15,13,12,25,17,,,,,,,,1.64,1.37,0.90*09
$GPRMC,133721.000,A,4844.6825,N,00919.3232,E,0.30,320.26,220415,,,D*6C
$GPVTG,320.26,T,,M,0.30,N,0.55,K,D*3E
$GPGGA,133722.000,4844.6824,N,00919.3230,E,2,05,1.37,378.6,M,48.0,M,0000,0000*68
$GPGSA,A,3,15,13,12,25,17,,,,,,,,1.64,1.37,0.90*09
$GPRMC,133722.000,A,4844.6824,N,00919.3230,E,0.47,356.32,220415,,,D*68
$GPVTG,356.32,T,,M,0.47,N,0.87,K,D*35
$GPGGA,133723.000,4844.6823,N,00919.3229,E,2,05,1.40,378.8,M,48.0,M,0000,0000*68
$GPGSA,A,3,15,13,12,25,17,,,,,,,,2.53,1.40,2.10*04
$GPGSV,3,1,12,24,76,307,21,12,47,238,39,15,43,186,28,17,37,061,21*7B
$GPGSV,3,2,12,33,29,211,31,13,16,157,35,18,15,268,20,22,14,300,*75
$GPGSV,3,3,12,25,10,240,23,14,09,320,,28,05,056,,01,02,016,*7E
$GPRMC,133723.000,A,4844.6823,N,00919.3229,E,0.26,354.09,220415,,,D*6B
$GPVTG,354.09,T,,M,0.26,N,0.48,K,D*3B
$GPGGA,133724.000,4844.6822,N,00919.3226,E,2,05,1.40,378.9,M,48.0,M,0000,0000*60
$GPGSA,A,3,15,13,12,25,17,,,,,,,,2.53,1.40,2.10*04
$GPRMC,133724.000,A,4844.6822,N,00919.3226,E,0.42,348.67,220415,,,D*65
$GPVTG,348.67,T,,M,0.42,N,0.77,K,D*30
$GPGGA,133725.000,4844.6823,N,00919.3226,E,2,05,1.40,378.9,M,48.0,M,0000,0000*60
$GPGSA,A,3,15,13,12,25,17,,,,,,,,2.53,1.40,2.10*04
$GPRMC,133725.000,A,4844.6823,N,00919.3226,E,0.37,10.46,220415,,,D*5A
$GPVTG,10.46,T,,M,0.37,N,0.68,K,D*01
$GPGGA,133726.000,4844.6824,N,00919.3226,E,2,05,1.40,378.9,M,48.0,M,0000,0000*64
$GPGSA,A,3,15,13,12,25,17,,,,,,,,2.53,1.40,2.10*04
$GPRMC,133726.000,A,4844.6824,N,00919.3226,E,0.34,119.38,220415,,,D*6C
$GPVTG,119.38,T,,M,0.34,N,0.62,K,D*39
$GPGGA,133727.000,4844.6824,N,00919.3227,E,2,05,1.37,379.0,M,48.0,M,0000,0000*6C
$GPGSA,A,3,15,13,12,25,17,,,,,,,,1.64,1.37,0.90*09
$GPRMC,133727.000,A,4844.6824,N,00919.3227,E,0.17,188.44,220415,,,D*6E
$GPVTG,188.44,T,,M,0.17,N,0.32,K,D*3E
$GPGGA,133728.000,4844.6824,N,00919.3227,E,2,05,1.37,379.0,M,48.0,M,0000,0000*63
$GPGSA,A,3,15,13,12,25,17,,,,,,,,1.64,1.37,0.90*09
$GPGSV,3,1,12,24,76,307,21,12,47,238,38,15,43,186,28,17,37,061,21*7A
$GPGSV,3,2,12,33,29,211,31,13,16,157,36,18,15,268,16,22,14,300,*73
$GPGSV,3,3,12,25,10,240,23,14,09,320,,28,05,056,,01,02,016,*7E
$GPRMC,133728.000,A,4844.6824,N,00919.3227,E,0.13,302.83,220415,,,D*6E
$GPVTG,302.83,T,,M,0.13,N,0.25,K,D*37
$GPGGA,133729.000,4844.6824,N,00919.3226,E,2,05,1.37,379.0,M,48.0,M,0000,0000*63
$GPGSA,A,3,15,13,12,25,17,,,,,,,,1.64,1.37,0.90*09
$GPRMC,133729.000,A,4844.6824,N,00919.3226,E,0.40,238.44,220415,,,D*6B
$GPVTG,238.44,T,,M,0.40,N,0.74,K,D*36
$GPGGA,133730.000,4844.6823,N,00919.3225,E,2,05,1.37,379.0,M,48.0,M,0000,0000*6F
$GPGSA,A,3,15,13,12,25,17,,,,,,,,1.64,1.37,0.90*09
$GPRMC,133730.000,A,4844.6823,N,00919.3225,E,0.22,260.16,220415,,,D*69
$GPVTG,260.16,T,,M,0.22,N,0.41,K,D*3E
$GPGGA,133731.000,4844.6823,N,00919.3224,E,2,05,1.37,379.0,M,48.0,M,0000,0000*6F
$GPGSA,A,3,15,13,12,25,17,,,,,,,,1.64,1.37,0.90*09
$GPRMC,133731.000,A,4844.6823,N,00919.3224,E,0.17,24.46,220415,,,D*58
$GPVTG,24.46,T,,M,0.17,N,0.32,K,D*0B
$GPGGA,133732.000,4844.6824,N,00919.3224,E,2,05,1.37,379.0,M,48.0,M,0000,0000*6B
$GPGSA,A,3,15,13,12,25,17,,,,,,,,1.64,1.37,0.90*09
$GPRMC,133732.000,A,4844.6824,N,00919.3224,E,0.32,356.98,220415,,,D*6E
$GPVTG,356.98,T,,M,0.32,N,0.59,K,D*34
$GPGGA,133733.000,4844.6824,N,00919.3224,E,2,05,1.40,379.1,M,48.0,M,0000,0000*6B
$GPGSA,A,3,15,13,12,25,17,,,,,,,,2.53,1.40,2.10*04
$GPGSV,3,1,12,24,76,307,22,12,47,238,38,15,43,186,28,17,37,061,16*7D
$GPGSV,3,2,12,33,29,211,31,13,16,157,35,18,15,268,15,22,14,300,*73
$GPGSV,3,3,12,25,10,240,23,14,09,320,,28,05,056,,01,02,016,*7E
$GPRMC,133733.000,A,4844.6824,N,00919.3224,E,0.20,31.76,220415,,,D*5E
$GPVTG,31.76,T,,M,0.20,N,0.37,K,D*0D
$GPGGA,133734.000,4844.6825,N,00919.3225,E,2,05,1.37,379.1,M,48.0,M,0000,0000*6C
$GPGSA,A,3,15,13,12,25,17,,,,,,,,1.64,1.37,0.90*09
$GPRMC,133734.000,A,4844.6825,N,00919.3225,E,0.56,65.47,220415,,,D*5B
$GPVTG,65.47,T,,M,0.56,N,1.04,K,D*0E
$GPGGA,133735.000,4844.6826,N,00919.3227,E,2,05,1.37,379.1,M,48.0,M,0000,0000*6C
$GPGSA,A,3,15,13,12,25,17,,,,,,,,1.64,1.37,0.90*09
$GPRMC,133735.000,A,4844.6826,N,00919.3227,E,0.42,344.71,220415,,,D*6B
$GPVTG,344.71,T,,M,0.42,N,0.78,K,D*34
$GPGGA,133736.000,4844.6827,N,00919.3226,E,2,05,1.37,379.1,M,48.0,M,0000,0000*6F
$GPGSA,A,3,15,13,12,25,17,,,,,,,,1.64,1.37,0.90*09
$GPRMC,133736.000,A,4844.6827,N,00919.3226,E,0.40,334.49,220415,,,D*66
$GPVTG,334.49,T,,M,0.40,N,0.74,K,D*36
$GPGGA,133737.000,4844.6828,N,00919.3226,E,2,05,1.37,379.1,M,48.0,M,0000,0000*61
$GPGSA,A,3,15,13,12,25,17,,,,,,,,1.64,1.37,0.90*09
$GPRMC,133737.000,A,4844.6828,N,00919.3226,E,0.26,81.41,220415,,,D*5D
$GPVTG,81.41,T,,M,0.26,N,0.49,K,D*0D
$GPGGA,133738.000,4844.6828,N,00919.3227,E,2,05,1.36,379.1,M,48.0,M,0000,0000*6E
$GPGSA,A,3,15,13,12,25,17,,,,,,,,1.64,1.36,0.90*08
$GPGSV,3,1,12,24,76,307,20,12,47,238,39,15,43,186,29,17,37,061,13*7A
$GPGSV,3,2,12,33,29,211,31,13,16,157,31,18,15,268,16,22,14,300,*74
$GPGSV,3,3,12,25,10,240,24,14,09,320,,28,05,056,,01,02,016,*79
$GPRMC,133738.000,A,4844.6828,N,00919.3227,E,0.41,319.25,220415,,,D*62
$GPVTG,319.25,T,,M,0.41,N,0.75,K,D*33
$GPGGA,133739.000,4844.6829,N,00919.3226,E,2,05,1.37,379.1,M,48.0,M,0000,0000*6E
$GPGSA,A,3,15,13,12,25,17,,,,,,,,1.64,1.37,0.90*09
$GPRMC,133739.000,A,4844.6829,N,00919.3226,E,0.05,63.95,220415,,,D*56
$GPVTG,63.95,T,,M,0.05,N,0.09,K,D*0D
$GPGGA,133740.000,4844.6829,N,00919.3226,E,2,05,1.36,379.1,M,48.0,M,0000,0000*61
$GPGSA,A,3,15,13,12,25,17,,,,,,,,1.64,1.36,0.90*08
$GPRMC,133740.000,A,4844.6829,N,00919.3226,E,0.43,1.41,220415,,,D*67
$GPVTG,1.41,T,,M,0.43,N,0.81,K,D*32
$GPGGA,133741.000,4844.6830,N,00919.3226,E,2,05,1.40,379.1,M,48.0,M,0000,0000*69
$GPGSA,A,3,15,13,12,25,17,,,,,,,,2.53,1.40,2.10*04
$GPRMC,133741.000,A,4844.6830,N,00919.3226,E,0.30,25.80,220415,,,D*51
$GPVTG,25.80,T,,M,0.30,N,0.55,K,D*04
$GPGGA,133742.000,4844.6831,N,00919.3227,E,2,05,1.36,379.1,M,48.0,M,0000,0000*6B
$GPGSA,A,3,15,13,12,25,17,,,,,,,,1.64,1.36,0.90*08
$GPRMC,133742.000,A,4844.6831,N,00919.3227,E,0.28,316.03,220415,,,D*63
$GPVTG,316.03,T,,M,0.28,N,0.52,K,D*32
$GPGGA,133743.000,4844.6832,N,00919.3226,E,2,05,1.37,379.1,M,48.0,M,0000,0000*69
$GPGSA,A,3,15,13,12,25,17,,,,,,,,1.64,1.37,0.90*09
$GPGSV,3,1,12,24,76,307,20,12,47,238,40,15,42,186,31,17,37,060,18*76
$GPGSV,3,2,12,33,29,211,31,13,16,157,25,18,15,268,16,22,14,300,*71
$GPGSV,3,3,12,25,10,240,25,14,09,320,,28,05,056,,01,02,016,*78
$GPRMC,133743.000,A,4844.6832,N,00919.3226,E,0.35,1.05,220415,,,D*6F
$GPVTG,1.05,T,,M,0.35,N,0.65,K,D*39
$GPGGA,133744.000,4844.6833,N,00919.3226,E,2,05,1.40,379.1,M,48.0,M,0000,0000*6F
$GPGSA,A,3,15,13,12,25,17,,,,,,,,2.53,1.40,2.10*04
$GPRMC,133744.000,A,4844.6833,N,00919.3226,E,0.70,332.05,220415,,,D*6B
$GPVTG,332.05,T,,M,0.70,N,1.29,K,D*32
$GPGGA,133745.000,4844.6833,N,00919.3224,E,2,05,1.36,378.9,M,48.0,M,0000,0000*64
$GPGSA,A,3,15,13,12,25,17,,,,,,,,1.64,1.36,0.90*08
$GPRMC,133745.000,A,4844.6833,N,00919.3224,E,0.56,334.28,220415,,,D*65
$GPVTG,334.28,T,,M,0.56,N,1.04,K,D*30
$GPGGA,133746.000,4844.6835,N,00919.3227,E,2,05,1.36,378.8,M,48.0,M,0000,0000*63
$GPGSA,A,3,15,13,12,25,17,,,,,,,,1.64,1.36,0.90*08
$GPRMC,133746.000,A,4844.6835,N,00919.3227,E,0.43,315.09,220415,,,D*67
$GPVTG,315.09,T,,M,0.43,N,0.79,K,D*3F
$GPGGA,133747.000,4844.6835,N,00919.3228,E,2,05,1.36,378.7,M,48.0,M,0000,0000*62
$GPGSA,A,3,15,13,12,25,17,,,,,,,,1.64,1.36,0.90*08
$GPRMC,133747.000,A,4844.6835,N,00919.3228,E,0.14,171.73,220415,,,D*66
$GPVTG,171.73,T,,M,0.14,N,0.27,K,D*3B
$GPGGA,133748.000,4844.6836,N,00919.3231,E,2,05,1.36,378.7,M,48.0,M,0000,0000*66
$GPGSA,A,3,15,13,12,25,17,,,,,,,,1.64,1.36,0.90*08
$GPGSV,3,1,12,24,76,307,20,12,47,238,40,15,42,186,31,17,37,060,17*79
$GPGSV,3,2,12,33,29,211,31,13,16,157,30,18,15,267,12,22,14,300,*7E
$GPGSV,3,3,12,25,10,240,25,14,09,320,,28,05,056,,01,02,016,*78
$GPRMC,133748.000,A,4844.6836,N,00919.3231,E,0.27,175.36,220415,,,D*67
$GPVTG,175.36,T,,M,0.27,N,0.49,K,D*36
$GPGGA,133749.000,4844.6835,N,00919.3231,E,2,05,1.36,378.7,M,48.0,M,0000,0000*64
$GPGSA,A,3,15,13,12,25,17,,,,,,,,1.64,1.36,0.90*08
$GPRMC,133749.000,A,4844.6835,N,00919.3231,E,0.65,182.55,220415,,,D*6E
$GPVTG,182.55,T,,M,0.65,N,1.21,K,D*32
$GPGGA,133750.000,4844.6836,N,00919.3235,E,2,05,1.36,378.8,M,48.0,M,0000,0000*64
$GPGSA,A,3,15,13,12,25,17,,,,,,,,1.64,1.36,0.90*08
$GPRMC,133750.000,A,4844.6836,N,00919.3235,E,0.64,201.51,220415,,,D*6C
$GPVTG,201.51,T,,M,0.64,N,1.18,K,D*35
$GPGGA,133751.000,4844.6840,N,00919.3242,E,2,05,1.36,378.9,M,48.0,M,0000,0000*65
$GPGSA,A,3,15,13,12,25,17,,,,,,,,1.64,1.36,0.90*08
$GPRMC,133751.000,A,4844.6840,N,00919.3242,E,0.79,183.97,220415,,,D*63
$GPVTG,183.97,T,,M,0.79,N,1.46,K,D*31
$GPGGA,133752.000,4844.6835,N,00919.3240,E,2,05,1.36,379.0,M,48.0,M,0000,0000*6E
$GPGSA,A,3,15,13,12,25,17,,,,,,,,1.63,1.36,0.90*0F
$GPRMC,133752.000,A,4844.6835,N,00919.3240,E,0.96,185.19,220415,,,D*61
$GPVTG,185.19,T,,M,0.96,N,1.78,K,D*3D
$GPGGA,133753.000,4844.6833,N,00919.3240,E,2,05,1.36,379.2,M,48.0,M,0000,0000*6B
$GPGSA,A,3,15,13,12,25,17,,,,,,,,1.64,1.36,0.90*08
$GPGSV,3,1,12,24,76,307,18,12,47,238,39,15,42,186,31,17,37,060,17*7C
$GPGSV,3,2,12,33,29,211,31,13,16,157,34,18,15,267,14,22,14,300,*7C
$GPGSV,3,3,12,25,10,240,23,14,09,320,,28,05,056,,01,02,016,*7E
$GPRMC,133753.000,A,4844.6833,N,00919.3240,E,1.15,205.37,220415,,,D*6B
$GPVTG,205.37,T,,M,1.15,N,2.13,K,D*3E
$GPGGA,133754.000,4844.6832,N,00919.3239,E,2,05,1.36,379.4,M,48.0,M,0000,0000*65
$GPGSA,A,3,15,13,12,25,17,,,,,,,,1.63,1.36,0.90*0F
$GPRMC,133754.000,A,4844.6832,N,00919.3239,E,0.49,221.36,220415,,,D*6C
$GPVTG,221.36,T,,M,0.49,N,0.91,K,D*39
$GPGGA,133755.000,4844.6836,N,00919.3240,E,2,05,1.36,379.5,M,48.0,M,0000,0000*6F
$GPGSA,A,3,15,13,12,25,17,,,,,,,,1.64,1.36,0.90*08
$GPRMC,133755.000,A,4844.6836,N,00919.3240,E,0.46,262.65,220415,,,D*69
$GPVTG,262.65,T,,M,0.46,N,0.86,K,D*31
$GPGGA,133756.000,4844.6835,N,00919.3238,E,2,05,1.36,379.7,M,48.0,M,0000,0000*62
$GPGSA,A,3,15,13,12,25,17,,,,,,,,1.63,1.36,0.90*0F
$GPRMC,133756.000,A,4844.6835,N,00919.3238,E,0.12,337.56,220415,,,D*66
$GPVTG,337.56,T,,M,0.12,N,0.22,K,D*3F
$GPGGA,133757.000,4844.6836,N,00919.3235,E,2,05,1.36,379.8,M,48.0,M,0000,0000*62
$GPGSA,A,3,15,13,12,25,17,,,,,,,,1.63,1.36,0.90*0F
$GPRMC,133757.000,A,4844.6836,N,00919.3235,E,0.12,8.90,220415,,,D*6C
$GPVTG,8.90,T,,M,0.12,N,0.22,K,D*3A
$GPGGA,133758.000,4844.6836,N,00919.3235,E,2,05,1.40,379.9,M,48.0,M,0000,0000*6D
$GPGSA,A,3,15,13,12,25,17,,,,,,,,2.53,1.40,2.11*05
$GPGSV,3,1,12,24,76,307,17,12,47,238,39,15,42,186,30,17,37,060,16*73
$GPGSV,3,2,12,33,29,211,31,13,16,157,36,18,15,267,16,22,14,300,*7C
$GPGSV,3,3,12,25,10,240,21,14,09,320,,28,05,056,,01,02,016,*7C
$GPRMC,133758.000,A,4844.6836,N,00919.3235,E,0.26,182.37,220415,,,D*6A
$GPVTG,182.37,T,,M,0.26,N,0.48,K,D*3F
$GPGGA,133759.000,4844.6835,N,00919.3235,E,2,05,1.36,379.9,M,48.0,M,0000,0000*6E
$GPGSA,A,3,15,13,12,25,17,,,,,,,,1.63,1.36,0.90*0F
$GPRMC,133759.000,A,4844.6835,N,00919.3235,E,0.39,257.19,220415,,,D*61
$GPVTG,257.19,T,,M,0.39,N,0.73,K,D*3E
$GPGGA,133800.000,4844.6835,N,00919.3234,E,2,05,1.36,379.9,M,48.0,M,0000,0000*6C
$GPGSA,A,3,15,13,12,25,17,,,,,,,,1.63,1.36,0.90*0F
$GPRMC,133800.000,A,4844.6835,N,00919.3234,E,0.41,205.99,220415,,,D*63
$GPVTG,205.99,T,,M,0.41,N,0.76,K,D*3B
$GPGGA,133801.000,4844.6834,N,00919.3233,E,2,05,1.36,379.9,M,48.0,M,0000,0000*6B
$GPGSA,A,3,15,13,12,25,17,,,,,,,,1.63,1.36,0.90*0F
$GPRMC,133801.000,A,4844.6834,N,00919.3233,E,0.38,196.95,220415,,,D*6F
$GPVTG,196.95,T,,M,0.38,N,0.71,K,D*37
$GPGGA,133802.000,4844.6833,N,00919.3233,E,2,05,1.36,379.9,M,48.0,M,0000,0000*6F
$GPGSA,A,3,15,13,12,25,17,,,,,,,,1.63,1.36,0.90*0F
$GPRMC,133802.000,A,4844.6833,N,00919.3233,E,0.36,174.77,220415,,,D*65
$GPVTG,174.77,T,,M,0.36,N,0.66,K,D*3F
$GPGGA,133803.000,4844.6832,N,00919.3232,E,2,05,1.36,380.0,M,48.0,M,0000,0000*61
$GPGSA,A,3,15,13,12,25,17,,,,,,,,1.63,1.36,0.90*0F
$GPGSV,3,1,12,24,76,307,17,12,47,238,38,15,42,186,31,17,37,060,14*71
$GPGSV,3,2,12,33,29,211,31,13,16,157,36,18,15,267,17,22,14,300,*7D
$GPGSV,3,3,12,25,10,240,18,14,09,320,,28,05,056,,01,02,016,*76
$GPRMC,133803.000,A,4844.6832,N,00919.3232,E,0.85,208.47,220415,,,D*67
$GPVTG,208.47,T,,M,0.85,N,1.58,K,D*30
$GPGGA,133804.000,4844.6818,N,00919.3219,E,2,05,1.36,380.3,M,48.0,M,0000,0000*64
$GPGSA,A,3,15,13,12,25,17,,,,,,,,1.63,1.36,0.90*0F
$GPRMC,133804.000,A,4844.6818,N,00919.3219,E,1.36,212.80,220415,,,D*68
$GPVTG,212.80,T,,M,1.36,N,2.52,K,D*30
$GPGGA,133805.000,4844.6793,N,00919.3198,E,2,05,1.36,380.6,M,48.0,M,0000,0000*66
$GPGSA,A,3,15,13,12,25,17,,,,,,,,1.63,1.36,0.90*0F
$GPRMC,133805.000,A,4844.6793,N,00919.3198,E,1.36,215.32,220415,,,D*61
$GPVTG,215.32,T,,M,1.36,N,2.51,K,D*3D
$GPGGA,133806.000,4844.6780,N,00919.3185,E,2,05,1.36,380.8,M,48.0,M,0000,0000*65
$GPGSA,A,3,15,13,12,25,17,,,,,,,,1.63,1.36,0.90*0F
$GPRMC,133806.000,A,4844.6780,N,00919.3185,E,0.35,201.96,220415,,,D*65
$GPVTG,201.96,T,,M,0.35,N,0.65,K,D*31
$GPGGA,133807.000,4844.6770,N,00919.3175,E,2,05,1.36,381.0,M,48.0,M,0000,0000*6D
$GPGSA,A,3,15,13,12,25,17,,,,,,,,1.63,1.36,0.90*0F
$GPRMC,133807.000,A,4844.6770,N,00919.3175,E,0.43,354.84,220415,,,D*67
$GPVTG,354.84,T,,M,0.43,N,0.79,K,D*3F
$GPGGA,133808.000,4844.6754,N,00919.3161,E,2,05,1.40,381.2,M,48.0,M,0000,0000*62
$GPGSA,A,3,15,13,12,25,17,,,,,,,,2.53,1.40,2.11*05
$GPGSV,3,1,12,24,76,307,17,12,47,238,38,15,42,186,32,17,37,060,15*73
$GPGSV,3,2,12,33,29,211,31,13,16,157,31,18,15,267,22,22,14,300,*7C
$GPGSV,3,3,12,25,10,240,17,14,09,320,,28,05,056,,01,02,016,*79
$GPRMC,133808.000,A,4844.6754,N,00919.3161,E,0.70,8.38,220415,,,D*66
$GPVTG,8.38,T,,M,0.70,N,1.30,K,D*3E
$GPGGA,133809.000,4844.6740,N,00919.3146,E,2,05,1.40,381.2,M,48.0,M,0000,0000*63
$GPGSA,A,3,15,13,12,25,17,,,,,,,,2.53,1.40,2.11*05
$GPRMC,133809.000,A,4844.6740,N,00919.3146,E,0.88,20.73,220415,,,D*55
$GPVTG,20.73,T,,M,0.88,N,1.64,K,D*0D
$GPGGA,133810.000,4844.6717,N,00919.3126,E,2,05,1.36,381.2,M,48.0,M,0000,0000*6E
$GPGSA,A,3,15,13,12,25,17,,,,,,,,1.63,1.36,0.90*0F
$GPRMC,133810.000,A,4844.6717,N,00919.3126,E,0.13,17.57,220415,,,D*59
$GPVTG,17.57,T,,M,0.13,N,0.24,K,D*08
$GPGGA,133811.000,4844.6699,N,00919.3111,E,2,05,1.36,381.1,M,48.0,M,0000,0000*6F
$GPGSA,A,3,15,13,12,25,17,,,,,,,,1.63,1.36,0.90*0F
$GPRMC,133811.000,A,4844.6699,N,00919.3111,E,0.30,57.74,220415,,,D*5F
$GPVTG,57.74,T,,M,0.30,N,0.56,K,D*09
$GPGGA,133812.000,4844.6690,N,00919.3104,E,2,05,1.36,381.0,M,48.0,M,0000,0000*60
$GPGSA,A,3,15,13,12,25,17,,,,,,,,1.63,1.36,0.90*0F
$GPRMC,133812.000,A,4844.6690,N,00919.3104,E,0.35,73.81,220415,,,D*58
$GPVTG,73.81,T,,M,0.35,N,0.64,K,D*01
$GPGGA,133813.000,4844.6694,N,00919.3109,E,2,05,1.36,381.0,M,48.0,M,0000,0000*68
$GPGSA,A,3,15,13,12,25,17,,,,,,,,1.63,1.36,0.90*0F
$GPGSV,3,1,12,24,76,307,17,12,48,238,40,15,42,186,33,17,37,060,16*71
$GPGSV,3,2,12,33,29,211,30,13,16,157,26,18,15,267,22,22,14,300,*7B
$GPGSV,3,3,12,25,10,240,19,14,09,320,,28,05,056,,01,02,016,*77
$GPRMC,133813.000,A,4844.6694,N,00919.3109,E,0.24,71.72,220415,,,D*5E
$GPVTG,71.72,T,,M,0.24,N,0.45,K,D*0C
$GPGGA,133814.000,4844.6694,N,00919.3111,E,2,05,1.36,381.0,M,48.0,M,0000,0000*66
$GPGSA,A,3,15,13,12,25,17,,,,,,,,1.63,1.36,0.90*0F
$GPRMC,133814.000,A,4844.6694,N,00919.3111,E,0.36,59.41,220415,,,D*59
$GPVTG,59.41,T,,M,0.36,N,0.67,K,D*05
$GPGGA,133815.000,4844.6695,N,00919.3112,E,2,05,1.36,381.0,M,48.0,M,0000,0000*65
$GPGSA,A,3,15,13,12,25,17,,,,,,,,1.63,1.36,0.90*0F
$GPRMC,133815.000,A,4844.6695,N,00919.3112,E,0.68,11.51,220415,,,D*5C
$GPVTG,11.51,T,,M,0.68,N,1.26,K,D*07
$GPGGA,133816.000,4844.6697,N,00919.3117,E,2,05,1.40,381.0,M,48.0,M,0000,0000*60
$GPGSA,A,3,15,13,12,25,17,,,,,,,,2.53,1.40,2.11*05
$GPRMC,133816.000,A,4844.6697,N,00919.3117,E,0.36,42.75,220415,,,D*53
$GPVTG,42.75,T,,M,0.36,N,0.67,K,D*08
$GPGGA,133817.000,4844.6697,N,00919.3117,E,2,05,1.36,380.9,M,48.0,M,0000,0000*68
$GPGSA,A,3,15,13,12,25,17,,,,,,,,1.63,1.36,0.90*0F
$GPRMC,133817.000,A,4844.6697,N,00919.3117,E,0.40,352.42,220415,,,D*65
$GPVTG,352.42,T,,M,0.40,N,0.74,K,D*3D
$GPGGA,133818.000,4844.6700,N,00919.3122,E,2,05,1.40,380.8,M,48.0,M,0000,0000*6E
$GPGSA,A,3,15,13,12,25,17,,,,,,,,2.53,1.40,2.11*05
$GPGSV,3,1,12,24,76,307,16,12,48,238,40,15,42,186,33,17,37,060,17*71
$GPGSV,3,2,12,33,29,211,30,13,15,157,26,18,15,267,19,22,14,300,*70
$GPGSV,3,3,12,25,10,240,20,14,09,320,,28,05,056,,01,02,016,*7D
$GPRMC,133818.000,A,4844.6700,N,00919.3122,E,0.61,328.72,220415,,,D*6E
$GPVTG,328.72,T,,M,0.61,N,1.12,K,D*31
$GPGGA,133819.000,4844.6703,N,00919.3129,E,2,05,1.36,380.7,M,48.0,M,0000,0000*69
$GPGSA,A,3,15,13,12,25,17,,,,,,,,1.63,1.36,0.90*0F
$GPRMC,133819.000,A,4844.6703,N,00919.3129,E,0.38,3.44,220415,,,D*64
$GPVTG,3.44,T,,M,0.38,N,0.71,K,D*36
$GPGGA,133820.000,4844.6705,N,00919.3140,E,2,05,1.40,380.4,M,48.0,M,0000,0000*68
$GPGSA,A,3,15,13,12,25,17,,,,,,,,2.53,1.40,2.11*05
$GPRMC,133820.000,A,4844.6705,N,00919.3140,E,0.39,120.62,220415,,,D*62
$GPVTG,120.62,T,,M,0.39,N,0.72,K,D*30
$GPGGA,133821.000,4844.6710,N,00919.3152,E,2,05,1.36,380.3,M,48.0,M,0000,0000*68
$GPGSA,A,3,15,13,12,25,17,,,,,,,,1.63,1.36,0.90*0F
$GPRMC,133821.000,A,4844.6710,N,00919.3152,E,0.25,18.18,220415,,,D*5E
$GPVTG,18.18,T,,M,0.25,N,0.46,K,D*0D
$GPGGA,133822.000,4844.6717,N,00919.3165,E,2,05,1.36,380.3,M,48.0,M,0000,0000*68
$GPGSA,A,3,15,13,12,25,17,,,,,,,,1.63,1.36,0.90*0F
$GPRMC,133822.000,A,4844.6717,N,00919.3165,E,0.15,30.60,220415,,,D*58
$GPVTG,30.60,T,,M,0.15,N,0.28,K,D*03
$GPGGA,133823.000,4844.6717,N,00919.3165,E,2,05,1.36,380.3,M,48.0,M,0000,0000*69
$GPGSA,A,3,15,13,12,25,17,,,,,,,,1.63,1.36,0.90*0F
$GPGSV,3,1,12,24,76,307,17,12,48,238,40,15,42,186,33,17,37,060,19*7E
$GPGSV,3,2,12,33,29,211,30,13,15,157,32,18,15,267,21,22,14,300,*7E
$GPGSV,3,3,12,25,10,240,22,14,09,320,,28,05,056,,01,02,016,*7F
$GPRMC,133823.000,A,4844.6717,N,00919.3165,E,0.02,131.97,220415,,,D*67
$GPVTG,131.97,T,,M,0.02,N,0.04,K,D*33
$GPGGA,133824.000,4844.6717,N,00919.3165,E,2,05,1.36,380.3,M,48.0,M,0000,0000*6E
$GPGSA,A,3,15,13,12,25,17,,,,,,,,1.63,1.36,0.90*0F
$GPRMC,133824.000,A,4844.6717,N,00919.3165,E,0.13,248.39,220415,,,D*69
$GPVTG,248.39,T,,M,0.13,N,0.25,K,D*39
$GPGGA,133825.000,4844.6716,N,00919.3165,E,2,05,1.36,380.3,M,48.0,M,0000,0000*6E
$GPGSA,A,3,15,13,12,25,17,,,,,,,,1.63,1.36,0.90*0F
$GPRMC,133825.000,A,4844.6716,N,00919.3165,E,0.15,137.05,220415,,,D*6B
$GPVTG,137.05,T,,M,0.15,N,0.28,K,D*36
$GPGGA,133826.000,4844.6716,N,00919.3165,E,2,05,1.36,380.3,M,48.0,M,0000,0000*6D
$GPGSA,A,3,15,13,12,25,17,,,,,,,,1.63,1.36,0.90*0F
$GPRMC,133826.000,A,4844.6716,N,00919.3165,E,0.37,225.62,220415,,,D*69
$GPVTG,225.62,T,,M,0.37,N,0.69,K,D*32
$GPGGA,133827.000,4844.6715,N,00919.3164,E,2,05,1.36,380.3,M,48.0,M,0000,0000*6E
$GPGSA,A,3,15,13,12,25,17,,,,,,,,1.63,1.36,0.90*0F
$GPRMC,133827.000,A,4844.6715,N,00919.3164,E,0.64,260.66,220415,,,D*69
$GPVTG,260.66,T,,M,0.64,N,1.19,K,D*37
$GPGGA,133828.000,4844.6704,N,00919.3151,E,2,05,1.36,380.3,M,48.0,M,0000,0000*67
$GPGSA,A,3,15,13,12,25,17,,,,,,,,1.63,1.36,0.90*0F
$GPGSV,3,1,12,24,76,307,17,12,48,238,40,15,42,186,34,17,37,060,19*79
$GPGSV,3,2,12,33,29,211,30,13,15,157,35,18,15,267,22,22,14,300,*7A
$GPGSV,3,3,12,25,10,240,21,14,09,320,,28,05,056,,01,02,016,*7C
$GPRMC,133828.000,A,4844.6704,N,00919.3151,E,0.65,236.41,220415,,,D*67
$GPVTG,236.41,T,,M,0.65,N,1.20,K,D*3A
$GPGGA,133829.000,4844.6690,N,00919.3137,E,2,05,1.36,380.3,M,48.0,M,0000,0000*6A
$GPGSA,A,3,15,13,12,25,17,,,,,,,,1.63,1.36,0.90*0F
$GPRMC,133829.000,A,4844.6690,N,00919.3137,E,0.74,209.79,220415,,,D*6D
$GPVTG,209.79,T,,M,0.74,N,1.36,K,D*3A
$GPGGA,133830.000,4844.6691,N,00919.3137,E,2,05,1.36,380.3,M,48.0,M,0000,0000*63
$GPGSA,A,3,15,13,12,25,17,,,,,,,,1.63,1.36,0.90*0F
$GPRMC,133830.000,A,4844.6691,N,00919.3137,E,0.06,288.74,220415,,,D*65
$GPVTG,288.74,T,,M,0.06,N,0.11,K,D*3F
$GPGGA,133831.000,4844.6692,N,00919.3135,E,2,05,1.36,380.3,M,48.0,M,0000,0000*63
$GPGSA,A,3,15,13,12,25,17,,,,,,,,1.63,1.36,0.90*0F
$GPRMC,133831.000,A,4844.6692,N,00919.3135,E,0.45,6.56,220415,,,D*66
$GPVTG,6.56,T,,M,0.45,N,0.83,K,D*37
$GPGGA,133832.000,4844.6694,N,00919.3134,E,2,05,1.40,380.4,M,48.0,M,0000,0000*61
$GPGSA,A,3,15,13,12,25,17,,,,,,,,2.53,1.40,2.11*05
$GPRMC,133832.000,A,4844.6694,N,00919.3134,E,0.52,12.56,220415,,,D*51
$GPVTG,12.56,T,,M,0.52,N,0.96,K,D*00
$GPGGA,133833.000,4844.6691,N,00919.3131,E,2,05,1.40,380.7,M,48.0,M,0000,0000*63
$GPGSA,A,3,15,13,12,25,17,,,,,,,,2.53,1.40,2.11*05
$GPGSV,3,1,12,24,76,307,16,12,48,238,40,15,42,186,34,17,37,060,18*79
$GPGSV,3,2,12,33,29,211,30,13,15,157,36,18,15,267,24,22,14,300,*7F
$GPGSV,3,3,12,25,10,240,19,14,09,320,,28,04,056,,01,02,016,*76
$GPRMC,133833.000,A,4844.6691,N,00919.3131,E,0.77,29.07,220415,,,D*5B
$GPVTG,29.07,T,,M,0.77,N,1.42,K,D*03
$GPGGA,133834.000,4844.6683,N,00919.3124,E,2,05,1.36,380.9,M,48.0,M,0000,0000*6C
$GPGSA,A,3,15,13,12,25,17,,,,,,,,1.63,1.36,0.90*0F
$GPRMC,133834.000,A,4844.6683,N,00919.3124,E,0.41,33.56,220415,,,D*51
$GPVTG,33.56,T,,M,0.41,N,0.75,K,D*0C
$GPGGA,133835.000,4844.6678,N,00919.3117,E,2,05,1.36,381.1,M,48.0,M,0000,0000*60
$GPGSA,A,3,15,13,12,25,17,,,,,,,,1.63,1.36,0.90*0F
$GPRMC,133835.000,A,4844.6678,N,00919.3117,E,0.46,352.83,220415,,,D*6F
$GPVTG,352.83,T,,M,0.46,N,0.85,K,D*38
$GPGGA,133836.000,4844.6673,N,00919.3111,E,2,05,1.39,381.3,M,48.0,M,0000,0000*63
$GPGSA,A,3,15,13,12,25,17,,,,,,,,2.53,1.39,2.11*0B
$GPRMC,133836.000,A,4844.6673,N,00919.3111,E,0.64,5.27,220415,,,D*6E
$GPVTG,5.27,T,,M,0.64,N,1.19,K,D*33
$GPGGA,133837.000,4844.6672,N,00919.3107,E,2,05,1.40,381.4,M,48.0,M,0000,0000*6D
$GPGSA,A,3,15,13,12,25,17,,,,,,,,2.53,1.40,2.11*05
$GPRMC,133837.000,A,4844.6672,N,00919.3107,E,0.54,336.21,220415,,,D*6F
$GPVTG,336.21,T,,M,0.54,N,1.00,K,D*3D
$GPGGA,133838.000,4844.6670,N,00919.3103,E,2,05,1.36,381.6,M,48.0,M,0000,0000*67
$GPGSA,A,3,15,13,12,25,17,,,,,,,,1.63,1.36,0.90*0F
$GPGSV,3,1,12,24,76,307,15,12,48,238,39,15,42,186,33,17,37,060,16*7D
$GPGSV,3,2,12,33,29,211,30,13,15,157,36,18,15,267,25,22,14,300,*7E
$GPGSV,3,3,12,25,10,240,17,14,09,320,,28,04,056,,01,02,016,*78
$GPRMC,133838.000,A,4844.6670,N,00919.3103,E,0.09,184.98,220415,,,D*67
$GPVTG,184.98,T,,M,0.09,N,0.17,K,D*3B
$GPGGA,133839.000,4844.6669,N,00919.3101,E,2,05,1.36,381.7,M,48.0,M,0000,0000*6D
$GPGSA,A,3,15,13,12,25,17,,,,,,,,1.63,1.36,0.90*0F
$GPRMC,133839.000,A,4844.6669,N,00919.3101,E,0.43,223.17,220415,,,D*6B
$GPVTG,223.17,T,,M,0.43,N,0.79,K,D*34
$GPGGA,133840.000,4844.6666,N,00919.3100,E,2,05,1.36,382.0,M,48.0,M,0000,0000*69
$GPGSA,A,3,15,13,12,25,17,,,,,,,,1.63,1.36,0.90*0F
$GPRMC,133840.000,A,4844.6666,N,00919.3100,E,0.27,139.46,220415,,,D*65
$GPVTG,139.46,T,,M,0.27,N,0.49,K,D*39
$GPGGA,133841.000,4844.6665,N,00919.3101,E,2,05,1.36,382.0,M,48.0,M,0000,0000*6A
$GPGSA,A,3,15,13,12,25,17,,,,,,,,1.63,1.36,0.90*0F
$GPRMC,133841.000,A,4844.6665,N,00919.3101,E,0.22,228.67,220415,,,D*63
$GPVTG,228.67,T,,M,0.22,N,0.40,K,D*35
$GPGGA,133842.000,4844.6665,N,00919.3100,E,2,05,1.36,382.0,M,48.0,M,0000,0000*68
$GPGSA,A,3,15,13,12,25,17,,,,,,,,1.63,1.36,0.90*0F
$GPRMC,133842.000,A,4844.6665,N,00919.3100,E,0.39,188.28,220415,,,D*69
$GPVTG,188.28,T,,M,0.39,N,0.73,K,D*3D
$GPGGA,133843.000,4844.6664,N,00919.3100,E,2,05,1.36,382.0,M,48.0,M,0000,0000*68
$GPGSA,A,3,15,13,12,25,17,,,,,,,,1.63,1.36,0.90*0F
$GPGSV,4,1,13,24,76,307,16,12,48,238,38,15,42,186,33,17,37,060,15*7A
$GPGSV,4,2,13,33,29,211,30,13,15,157,32,18,15,267,20,22,14,300,*79
$GPGSV,4,3,13,25,10,240,18,14,09,320,,28,04,056,,01,02,016,*71
$GPGSV,4,4,13,06,01,108,*45
$GPRMC,133843.000,A,4844.6664,N,00919.3100,E,0.46,281.37,220415,,,D*65
$GPVTG,281.37,T,,M,0.46,N,0.85,K,D*38
$GPGGA,133844.000,4844.6664,N,00919.3098,E,2,05,1.36,382.0,M,48.0,M,0000,0000*6F
$GPGSA,A,3,15,13,12,25,17,,,,,,,,1.63,1.36,0.90*0F
$GPRMC,133844.000,A,4844.6664,N,00919.3098,E,0.29,282.38,220415,,,D*67
$GPVTG,282.38,T,,M,0.29,N,0.54,K,D*31
$GPGGA,133845.000,4844.6664,N,00919.3097,E,2,05,1.36,382.0,M,48.0,M,0000,0000*61
$GPGSA,A,3,15,13,12,25,17,,,,,,,,1.63,1.36,0.90*0F
$GPRMC,133845.000,A,4844.6664,N,00919.3097,E,0.30,154.38,220415,,,D*69
$GPVTG,154.38,T,,M,0.30,N,0.56,K,D*33
$GPGGA,133846.000,4844.6664,N,00919.3097,E,2,05,1.36,382.0,M,48.0,M,0000,0000*62
$GPGSA,A,3,15,13,12,25,17,,,,,,,,1.63,1.36,0.90*0F
$GPRMC,133846.000,A,4844.6664,N,00919.3097,E,0.55,10.82,220415,,,D*59
$GPVTG,10.82,T,,M,0.55,N,1.01,K,D*03
$GPGGA,133847.000,4844.6665,N,00919.3098,E,2,05,1.39,382.0,M,48.0,M,0000,0000*62
$GPGSA,A,3,15,13,12,25,17,,,,,,,,2.53,1.39,2.11*0B
$GPRMC,133847.000,A,4844.6665,N,00919.3098,E,0.66,16.74,220415,,,D*59
$GPVTG,16.74,T,,M,0.66,N,1.22,K,D*0D
$GPGGA,133848.000,4844.6674,N,00919.3104,E,2,05,1.35,382.2,M,48.0,M,0000,0000*67
$GPGSA,A,3,15,13,12,25,17,,,,,,,,1.63,1.35,0.90*0C
$GPGSV,4,1,13,24,76,307,19,12,48,238,38,15,42,186,34,17,37,060,16*71
$GPGSV,4,2,13,33,29,211,30,13,15,157,27,18,15,267,21,22,14,300,*7C
$GPGSV,4,3,13,25,10,240,19,14,09,320,,28,04,056,,01,02,016,*70
$GPGSV,4,4,13,06,01,108,18*4C
$GPRMC,133848.000,A,4844.6674,N,00919.3104,E,0.94,3.47,220415,,,D*6B
$GPVTG,3.47,T,,M,0.94,N,1.73,K,D*30
$GPGGA,133849.000,4844.6688,N,00919.3120,E,2,05,1.39,382.7,M,48.0,M,0000,0000*6A
$GPGSA,A,3,15,13,12,25,17,,,,,,,,2.53,1.39,2.11*0B
$GPRMC,133849.000,A,4844.6688,N,00919.3120,E,1.27,27.95,220415,,,D*5F
$GPVTG,27.95,T,,M,1.27,N,2.35,K,D*01
$GPGGA,133850.000,4844.6701,N,00919.3132,E,2,05,1.35,382.9,M,48.0,M,0000,0000*63
$GPGSA,A,3,15,13,12,25,17,,,,,,,,1.63,1.35,0.90*0C
$GPRMC,133850.000,A,4844.6701,N,00919.3132,E,1.55,29.21,220415,,,D*50
$GPVTG,29.21,T,,M,1.55,N,2.87,K,D*0C
$GPGGA,133851.000,4844.6716,N,00919.3150,E,2,05,1.35,382.9,M,48.0,M,0000,0000*60
$GPGSA,A,3,15,13,12,25,17,,,,,,,,1.63,1.35,0.90*0C
$GPRMC,133851.000,A,4844.6716,N,00919.3150,E,1.97,43.64,220415,,,D*50
$GPVTG,43.64,T,,M,1.97,N,3.66,K,D*01
$GPGGA,133852.000,4844.6733,N,00919.3173,E,2,05,1.35,382.7,M,48.0,M,0000,0000*6B
$GPGSA,A,3,15,13,12,25,17,,,,,,,,1.63,1.35,0.90*0C
$GPRMC,133852.000,A,4844.6733,N,00919.3173,E,2.08,46.33,220415,,,D*57
$GPVTG,46.33,T,,M,2.08,N,3.85,K,D*0E
$GPGGA,133853.000,4844.6747,N,00919.3188,E,2,05,1.35,382.7,M,48.0,M,0000,0000*6D
$GPGSA,A,3,15,13,12,25,17,,,,,,,,1.63,1.35,0.90*0C
$GPGSV,4,1,13,24,76,307,21,12,48,238,38,15,42,186,36,17,37,060,12*7C
$GPGSV,4,2,13,33,29,211,29,13,15,157,28,18,15,267,22,22,14,300,*78
$GPGSV,4,3,13,25,10,240,19,14,09,320,,28,04,056,,01,02,016,*70
$GPGSV,4,4,13,06,01,108,21*46
$GPRMC,133853.000,A,4844.6747,N,00919.3188,E,1.82,30.91,220415,,,D*59
$GPVTG,30.91,T,,M,1.82,N,3.37,K,D*0F
$GPGGA,133854.000,4844.6766,N,00919.3207,E,2,05,1.35,382.6,M,48.0,M,0000,0000*6C
$GPGSA,A,3,15,13,12,25,17,,,,,,,,1.63,1.35,0.90*0C
$GPRMC,133854.000,A,4844.6766,N,00919.3207,E,1.92,49.81,220415,,,D*57
$GPVTG,49.81,T,,M,1.92,N,3.56,K,D*06
$GPGGA,133855.000,4844.6785,N,00919.3227,E,2,05,1.35,382.4,M,48.0,M,0000,0000*60
$GPGSA,A,3,15,13,12,25,17,,,,,,,,1.63,1.35,0.90*0C
$GPRMC,133855.000,A,4844.6785,N,00919.3227,E,2.01,38.00,220415,,,D*5F
$GPVTG,38.00,T,,M,2.01,N,3.72,K,D*06
$GPGGA,133856.000,4844.6807,N,00919.3249,E,2,05,1.35,382.2,M,48.0,M,0000,0000*68
$GPGSA,A,3,15,13,12,25,17,,,,,,,,1.63,1.35,0.90*0C
$GPRMC,133856.000,A,4844.6807,N,00919.3249,E,2.68,25.96,220415,,,D*5D
$GPVTG,25.96,T,,M,2.68,N,4.97,K,D*06
$GPGGA,133857.000,4844.6828,N,00919.3271,E,2,05,1.35,382.1,M,48.0,M,0000,0000*6C
$GPGSA,A,3,15,13,12,25,17,,,,,,,,1.63,1.35,0.90*0C
$GPRMC,133857.000,A,4844.6828,N,00919.3271,E,3.13,32.29,220415,,,D*55
$GPVTG,32.29,T,,M,3.13,N,5.81,K,D*0F
$GPGGA,133858.000,4844.6852,N,00919.3294,E,2,05,1.35,382.0,M,48.0,M,0000,0000*64
$GPGSA,A,3,15,13,12,25,17,,,,,,,,1.63,1.35,0.90*0C
$GPGSV,4,1,13,24,76,307,21,12,48,238,39,15,42,186,36,17,37,060,17*78
$GPGSV,4,2,13,33,29,211,30,13,15,157,31,18,15,267,22,22,14,299,*79
$GPGSV,4,3,13,25,10,240,18,14,09,320,,28,04,056,,01,02,016,*71
$GPGSV,4,4,13,06,01,108,23*44
$GPRMC,133858.000,A,4844.6852,N,00919.3294,E,3.53,28.01,220415,,,D*59
$GPVTG,28.01,T,,M,3.53,N,6.55,K,D*00
$GPGGA,133859.000,4844.6875,N,00919.3316,E,2,05,1.35,382.1,M,48.0,M,0000,0000*6A
$GPGSA,A,3,15,13,12,25,17,,,,,,,,1.63,1.35,0.90*0C
$GPRMC,133859.000,A,4844.6875,N,00919.3316,E,3.25,28.29,220415,,,D*5D
$GPVTG,28.29,T,,M,3.25,N,6.03,K,D*08
$GPGGA,133900.000,4844.6899,N,00919.3340,E,2,05,1.35,382.4,M,48.0,M,0000,0000*63
$GPGSA,A,3,15,13,12,25,17,,,,,,,,1.63,1.35,0.90*0C
$GPRMC,133900.000,A,4844.6899,N,00919.3340,E,2.80,29.63,220415,,,D*50
$GPVTG,29.63,T,,M,2.80,N,5.18,K,D*00
$GPGGA,133901.000,4844.6919,N,00919.3359,E,2,05,1.35,382.7,M,48.0,M,0000,0000*60
$GPGSA,A,3,15,13,12,25,17,,,,,,,,1.63,1.35,0.90*0C
$GPRMC,133901.000,A,4844.6919,N,00919.3359,E,2.31,30.01,220415,,,D*56
$GPVTG,30.01,T,,M,2.31,N,4.27,K,D*0B
$GPGGA,133902.000,4844.6895,N,00919.3335,E,2,05,1.35,382.7,M,48.0,M,0000,0000*6C
$GPGSA,A,3,15,13,12,25,17,,,,,,,,1.63,1.35,0.90*0C
$GPRMC,133902.000,A,4844.6895,N,00919.3335,E,1.86,30.40,220415,,,D*50
$GPVTG,30.40,T,,M,1.86,N,3.44,K,D*03
$GPGGA,133903.000,4844.6886,N,00919.3326,E,2,05,1.35,383.0,M,48.0,M,0000,0000*6B
$GPGSA,A,3,15,13,12,25,17,,,,,,,,1.63,1.35,0.90*0C
$GPGSV,4,1,13,24,76,308,21,12,48,238,39,15,42,186,36,17,37,060,16*76
$GPGSV,4,2,13,33,29,211,30,13,15,157,34,18,15,267,22,22,14,299,*7C
$GPGSV,4,3,13,25,10,240,18,14,09,320,,28,04,056,,01,02,016,*71
$GPGSV,4,4,13,06,01,108,23*44
$GPRMC,133903.000,A,4844.6886,N,00919.3326,E,1.90,29.61,220415,,,D*5D
$GPVTG,29.61,T,,M,1.90,N,3.52,K,D*08
$GPGGA,133904.000,4844.6876,N,00919.3317,E,2,05,1.35,383.3,M,48.0,M,0000,0000*62
$GPGSA,A,3,15,13,12,25,17,,,,,,,,1.63,1.35,0.90*0C
$GPRMC,133904.000,A,4844.6876,N,00919.3317,E,1.94,26.28,220415,,,D*51
$GPVTG,26.28,T,,M,1.94,N,3.59,K,D*05
$GPGGA,133905.000,4844.6859,N,00919.3301,E,2,05,1.35,383.8,M,48.0,M,0000,0000*62
$GPGSA,A,3,15,13,12,25,17,,,,,,,,1.63,1.35,0.90*0C
$GPRMC,133905.000,A,4844.6859,N,00919.3301,E,1.51,24.41,220415,,,D*5E
$GPVTG,24.41,T,,M,1.51,N,2.79,K,D*02
$GPGGA,133906.000,4844.6847,N,00919.3290,E,2,05,1.35,384.2,M,48.0,M,0000,0000*6A
$GPGSA,A,3,15,13,12,25,17,,,,,,,,1.63,1.35,0.90*0C
$GPRMC,133906.000,A,4844.6847,N,00919.3290,E,0.95,26.16,220415,,,D*52
$GPVTG,26.16,T,,M,0.95,N,1.76,K,D*07
$GPGGA,133907.000,4844.6839,N,00919.3284,E,2,05,1.35,384.8,M,48.0,M,0000,0000*6D
$GPGSA,A,3,15,13,12,25,17,,,,,,,,1.63,1.35,0.90*0C
$GPRMC,133907.000,A,4844.6839,N,00919.3284,E,0.46,32.65,220415,,,D*50
$GPVTG,32.65,T,,M,0.46,N,0.85,K,D*05
$GPGGA,133908.000,4844.6838,N,00919.3289,E,2,05,1.35,385.6,M,48.0,M,0000,0000*61
$GPGSA,A,3,15,13,12,25,17,,,,,,,,1.63,1.35,0.90*0C
$GPGSV,4,1,13,24,76,308,22,12,48,238,39,15,42,186,36,17,37,060,17*74
$GPGSV,4,2,13,33,29,211,30,13,15,157,34,18,15,267,20,22,14,299,*7E
$GPGSV,4,3,13,25,10,240,19,14,09,320,,28,04,056,,01,02,016,*70
$GPGSV,4,4,13,06,01,108,23*44
$GPRMC,133908.000,A,4844.6838,N,00919.3289,E,0.67,51.81,220415,,,D*5F
$GPVTG,51.81,T,,M,0.67,N,1.25,K,D*02
$GPGGA,133909.000,4844.6838,N,00919.3294,E,2,05,1.35,386.3,M,48.0,M,0000,0000*6A
$GPGSA,A,3,15,13,12,25,17,,,,,,,,1.63,1.35,0.90*0C
$GPRMC,133909.000,A,4844.6838,N,00919.3294,E,0.44,51.69,220415,,,D*55
$GPVTG,51.69,T,,M,0.44,N,0.82,K,D*09
$GPGGA,133910.000,4844.6838,N,00919.3299,E,2,05,1.35,386.9,M,48.0,M,0000,0000*65
$GPGSA,A,3,15,13,12,25,17,,,,,,,,1.63,1.35,0.90*0C
$GPRMC,133910.000,A,4844.6838,N,00919.3299,E,0.45,38.01,220415,,,D*50
$GPVTG,38.01,T,,M,0.45,N,0.84,K,D*0F
$GPGGA,133911.000,4844.6833,N,00919.3297,E,2,05,1.35,387.5,M,48.0,M,0000,0000*6C
$GPGSA,A,3,15,13,12,25,17,,,,,,,,1.63,1.35,0.90*0C
$GPRMC,133911.000,A,4844.6833,N,00919.3297,E,0.49,25.29,220415,,,D*5E
$GPVTG,25.29,T,,M,0.49,N,0.91,K,D*01
$GPGGA,133912.000,4844.6832,N,00919.3297,E,2,05,1.35,388.1,M,48.0,M,0000,0000*65
$GPGSA,A,3,15,13,12,25,17,,,,,,,,1.63,1.35,0.90*0C
$GPRMC,133912.000,A,4844.6832,N,00919.3297,E,0.72,5.71,220415,,,D*6B
$GPVTG,5.71,T,,M,0.72,N,1.33,K,D*3F
$GPGGA,133913.000,4844.6829,N,00919.3291,E,2,05,1.39,388.2,M,48.0,M,0000,0000*67
$GPGSA,A,3,15,13,12,25,17,,,,,,,,2.53,1.39,2.11*0B
$GPGSV,4,1,13,24,76,308,21,12,48,238,39,15,42,186,35,17,37,060,14*77
$GPGSV,4,2,13,33,29,211,31,13,15,157,34,18,15,267,18,22,14,299,*74
$GPGSV,4,3,13,25,10,240,18,14,09,320,,28,04,056,,01,02,015,*72
$GPGSV,4,4,13,06,01,108,22*45
$GPRMC,133913.000,A,4844.6829,N,00919.3291,E,0.55,6.75,220415,,,D*64
$GPVTG,6.75,T,,M,0.55,N,1.01,K,D*3C
$GPGGA,133914.000,4844.6831,N,00919.3291,E,2,05,1.39,388.3,M,48.0,M,0000,0000*68
$GPGSA,A,3,15,13,12,25,17,,,,,,,,2.53,1.39,2.11*0B
$GPRMC,133914.000,A,4844.6831,N,00919.3291,E,0.54,332.78,220415,,,D*62
$GPVTG,332.78,T,,M,0.54,N,1.01,K,D*34
$GPGGA,133915.000,4844.6831,N,00919.3291,E,2,05,1.35,388.3,M,48.0,M,0000,0000*65
$GPGSA,A,3,15,13,12,25,17,,,,,,,,1.63,1.35,0.90*0C
$GPRMC,133915.000,A,4844.6831,N,00919.3291,E,0.42,65.85,220415,,,D*57
$GPVTG,65.85,T,,M,0.42,N,0.77,K,D*00
$GPGGA,133916.000,4844.6833,N,00919.3293,E,2,05,1.35,388.3,M,48.0,M,0000,0000*66
$GPGSA,A,3,15,13,12,25,17,,,,,,,,1.63,1.35,0.90*0C
$GPRMC,133916.000,A,4844.6833,N,00919.3293,E,0.68,39.81,220415,,,D*51
$GPVTG,39.81,T,,M,0.68,N,1.26,K,D*00
$GPGGA,133917.000,4844.6839,N,00919.3295,E,2,05,1.35,388.4,M,48.0,M,0000,0000*6C
$GPGSA,A,3,15,13,12,25,17,,,,,,,,1.63,1.35,0.90*0C
$GPRMC,133917.000,A,4844.6839,N,00919.3295,E,1.26,20.04,220415,,,D*52
$GPVTG,20.04,T,,M,1.26,N,2.34,K,D*0E
$GPGGA,133918.000,4844.6838,N,00919.3293,E,2,05,1.35,388.5,M,48.0,M,0000,0000*65
$GPGSA,A,3,15,13,12,25,17,,,,,,,,1.62,1.35,0.90*0D
$GPGSV,4,1,13,24,76,308,21,12,48,238,39,15,42,186,35,17,37,060,13*70
$GPGSV,4,2,13,33,29,211,31,13,15,157,34,18,15,267,21,22,14,299,*7E
$GPGSV,4,3,13,25,10,240,17,14,09,320,,28,04,056,,01,02,015,*7D
$GPGSV,4,4,13,06,01,108,20*47
$GPRMC,133918.000,A,4844.6838,N,00919.3293,E,1.22,32.70,220415,,,D*5E
$GPVTG,32.70,T,,M,1.22,N,2.25,K,D*0A
$GPGGA,133919.000,4844.6841,N,00919.3295,E,2,05,1.35,388.6,M,48.0,M,0000,0000*6F
$GPGSA,A,3,15,13,12,25,17,,,,,,,,1.63,1.35,0.90*0C
$GPRMC,133919.000,A,4844.6841,N,00919.3295,E,1.02,32.69,220415,,,D*5D
$GPVTG,32.69,T,,M,1.02,N,1.90,K,D*0D
$GPGGA,133920.000,4844.6844,N,00919.3296,E,2,05,1.35,388.7,M,48.0,M,0000,0000*62
$GPGSA,A,3,15,13,12,25,17,,,,,,,,1.62,1.35,0.90*0D
$GPRMC,133920.000,A,4844.6844,N,00919.3296,E,0.84,25.21,220415,,,D*54
$GPVTG,25.21,T,,M,0.84,N,1.55,K,D*01
$GPGGA,133921.000,4844.6845,N,00919.3296,E,2,05,1.35,388.7,M,48.0,M,0000,0000*62
$GPGSA,A,3,15,13,12,25,17,,,,,,,,1.63,1.35,0.90*0C
